[{"id":"HUBABW","name":"Abbey Wood","fareZones":"4","hubCode":"HUBABW","wifi":false,"blueBadgeCarParking":false,"blueBadgeCarParkSpaces":null,"taxiRanksOutsideStation":false,"mainBusInterchange":null,"pierInterchange":null,"nationalRailInterchange":null,"airportInterchange":null,"emiratesAirLineInterchange":null,"lat":51.49130881818182,"lon":0.1212339090909091},{"id":"910GACTNCTL","name":"Acton Central","fareZones":"3","hubCode":null,"wifi":true,"blueBadgeCarParking":false,"blueBadgeCarParkSpaces":null,"taxiRanksOutsideStation":false,"mainBusInterchange":null,"pierInterchange":null,"nationalRailInterchange":null,"airportInterchange":null,"emiratesAirLineInterchange":null,"lat":51.508367428571425,"lon":-0.2631112857142857},{"id":"910GACTONML","name":"Acton Main Line","fareZones":"3","hubCode":null,"wifi":false,"blueBadgeCarParking":false,"blueBadgeCarParkSpaces":null,"taxiRanksOutsideStation":false,"mainBusInterchange":null,"pierInterchange":null,"nationalRailInterchange":null,"airportInterchange":null,"emiratesAirLineInterchange":null,"lat":51.51707066666666,"lon":-0.26787500000000003},{"id":"910GANERLEY","name":"Anerley","fareZones":"4","hubCode":null,"wifi":true,"blueBadgeCarParking":false,"blueBadgeCarParkSpaces":null,"taxiRanksOutsideStation":false,"mainBusInterchange":null,"pierInterchange":null,"nationalRailInterchange":null,"airportInterchange":null,"emiratesAirLineInterchange":null,"lat":51.412378857142855,"lon":-0.06558242857142857},{"id":"910GBCKNHMH","name":"Beckenham Hill","fareZones":"4","hubCode":null,"wifi":false,"blueBadgeCarParking":false,"blueBadgeCarParkSpaces":null,"taxiRanksOutsideStation":false,"mainBusInterchange":null,"pierInterchange":null,"nationalRailInterchange":null,"airportInterchange":null,"emiratesAirLineInterchange":null,"lat":51.42456571428572,"lon":-0.016046285714285714},{"id":"910GBELNGHM","name":"Bellingham","fareZones":"3","hubCode":null,"wifi":false,"blueBadgeCarParking":false,"blueBadgeCarParkSpaces":null,"taxiRanksOutsideStation":false,"mainBusInterchange":null,"pierInterchange":null,"nationalRailInterchange":null,"airportInterchange":null,"emiratesAirLineInterchange":null,"lat":51.433092599999995,"lon":-0.019628},{"id":"910GBHILLPK","name":"Bush Hill Park","fareZones":"5","hubCode":null,"wifi":true,"blueBadgeCarParking":true,"blueBadgeCarParkSpaces":2,"taxiRanksOutsideStation":false,"mainBusInterchange":null,"pierInterchange":null,"nationalRailInterchange":null,"airportInterchange":null,"emiratesAirLineInterchange":null,"lat":51.64155685714285,"lon":-0.069234},{"id":"910GBICKLEY","name":"Bickley","fareZones":"5","hubCode":null,"wifi":false,"blueBadgeCarParking":false,"blueBadgeCarParkSpaces":null,"taxiRanksOutsideStation":false,"mainBusInterchange":null,"pierInterchange":null,"nationalRailInterchange":null,"airportInterchange":null,"emiratesAirLineInterchange":null,"lat":51.3998922,"lon":0.045325800000000006},{"id":"910GBNHAM","name":"Burnham","fareZones":"Outside","hubCode":null,"wifi":false,"blueBadgeCarParking":false,"blueBadgeCarParkSpaces":null,"taxiRanksOutsideStation":false,"mainBusInterchange":null,"pierInterchange":null,"nationalRailInterchange":null,"airportInterchange":null,"emiratesAirLineInterchange":null,"lat":51.5233945,"lon":-0.6462498333333334},{"id":"910GBRBY","name":"Brondesbury","fareZones":"2","hubCode":null,"wifi":true,"blueBadgeCarParking":false,"blueBadgeCarParkSpaces":null,"taxiRanksOutsideStation":false,"mainBusInterchange":null,"pierInterchange":null,"nationalRailInterchange":null,"airportInterchange":null,"emiratesAirLineInterchange":null,"lat":51.545188800000005,"lon":-0.2022932},{"id":"910GBRBYPK","name":"Brondesbury Park","fareZones":"2","hubCode":null,"wifi":false,"blueBadgeCarParking":false,"blueBadgeCarParkSpaces":null,"taxiRanksOutsideStation":false,"mainBusInterchange":null,"pierInterchange":null,"nationalRailInterchange":null,"airportInterchange":null,"emiratesAirLineInterchange":null,"lat":51.5406976,"lon":-0.2100352},{"id":"910GBRENTX","name":"Brent Cross West Station","fareZones":"3","hubCode":null,"wifi":false,"blueBadgeCarParking":false,"blueBadgeCarParkSpaces":null,"taxiRanksOutsideStation":false,"mainBusInterchange":null,"pierInterchange":null,"nationalRailInterchange":null,"airportInterchange":null,"emiratesAirLineInterchange":null,"lat":51.56803409090908,"lon":-0.225068},{"id":"910GBROCKLY","name":"Brockley","fareZones":"2","hubCode":null,"wifi":true,"blueBadgeCarParking":false,"blueBadgeCarParkSpaces":null,"taxiRanksOutsideStation":false,"mainBusInterchange":null,"pierInterchange":null,"nationalRailInterchange":null,"airportInterchange":null,"emiratesAirLineInterchange":null,"lat":51.46416042857142,"lon":-0.03770342857142857},{"id":"910GBROMLYS","name":"Bromley South","fareZones":"5","hubCode":null,"wifi":false,"blueBadgeCarParking":false,"blueBadgeCarParkSpaces":null,"taxiRanksOutsideStation":false,"mainBusInterchange":null,"pierInterchange":null,"nationalRailInterchange":null,"airportInterchange":null,"emiratesAirLineInterchange":null,"lat":51.40006157142858,"lon":0.01781},{"id":"910GBRTWOOD","name":"Brentwood","fareZones":"9","hubCode":null,"wifi":true,"blueBadgeCarParking":true,"blueBadgeCarParkSpaces":17,"taxiRanksOutsideStation":false,"mainBusInterchange":null,"pierInterchange":null,"nationalRailInterchange":null,"airportInterchange":null,"emiratesAirLineInterchange":null,"lat":51.61367057142858,"lon":0.29957257142857147},{"id":"910GBRUCGRV","name":"Bruce Grove","fareZones":"3","hubCode":null,"wifi":true,"blueBadgeCarParking":false,"blueBadgeCarParkSpaces":null,"taxiRanksOutsideStation":false,"mainBusInterchange":null,"pierInterchange":null,"nationalRailInterchange":null,"airportInterchange":null,"emiratesAirLineInterchange":null,"lat":51.59391071428571,"lon":-0.070063},{"id":"910GBTHNLGR","name":"Bethnal Green","fareZones":"2","hubCode":null,"wifi":true,"blueBadgeCarParking":false,"blueBadgeCarParkSpaces":null,"taxiRanksOutsideStation":false,"mainBusInterchange":null,"pierInterchange":null,"nationalRailInterchange":null,"airportInterchange":null,"emiratesAirLineInterchange":null,"lat":51.523830499999995,"lon":-0.059741},{"id":"910GCAMHTH","name":"Cambridge Heath","fareZones":"2","hubCode":null,"wifi":false,"blueBadgeCarParking":false,"blueBadgeCarParkSpaces":null,"taxiRanksOutsideStation":false,"mainBusInterchange":null,"pierInterchange":null,"nationalRailInterchange":null,"airportInterchange":null,"emiratesAirLineInterchange":null,"lat":51.532287200000006,"lon":-0.0574648},{"id":"910GCATFORD","name":"Catford","fareZones":"3","hubCode":null,"wifi":false,"blueBadgeCarParking":false,"blueBadgeCarParkSpaces":null,"taxiRanksOutsideStation":false,"mainBusInterchange":null,"pierInterchange":null,"nationalRailInterchange":null,"airportInterchange":null,"emiratesAirLineInterchange":null,"lat":51.444390250000005,"lon":-0.02624175},{"id":"910GCFPK","name":"Crofton Park","fareZones":"3","hubCode":null,"wifi":false,"blueBadgeCarParking":false,"blueBadgeCarParkSpaces":null,"taxiRanksOutsideStation":false,"mainBusInterchange":null,"pierInterchange":null,"nationalRailInterchange":null,"airportInterchange":null,"emiratesAirLineInterchange":null,"lat":51.45495150000001,"lon":-0.03637825},{"id":"910GCHDWLHT","name":"Chadwell Heath","fareZones":"5","hubCode":null,"wifi":false,"blueBadgeCarParking":false,"blueBadgeCarParkSpaces":null,"taxiRanksOutsideStation":false,"mainBusInterchange":null,"pierInterchange":null,"nationalRailInterchange":null,"airportInterchange":null,"emiratesAirLineInterchange":null,"lat":51.56809828571428,"lon":0.1296867142857143},{"id":"910GCHESHNT","name":"Cheshunt","fareZones":"8","hubCode":null,"wifi":true,"blueBadgeCarParking":true,"blueBadgeCarParkSpaces":5,"taxiRanksOutsideStation":false,"mainBusInterchange":null,"pierInterchange":null,"nationalRailInterchange":"Partial","airportInterchange":null,"emiratesAirLineInterchange":null,"lat":51.70280828571429,"lon":-0.023625714285714285},{"id":"910GCHINGFD","name":"Chingford","fareZones":"5","hubCode":null,"wifi":true,"blueBadgeCarParking":true,"blueBadgeCarParkSpaces":3,"taxiRanksOutsideStation":false,"mainBusInterchange":null,"pierInterchange":null,"nationalRailInterchange":null,"airportInterchange":null,"emiratesAirLineInterchange":null,"lat":51.63336,"lon":0.0101045},{"id":"910GCLAPTON","name":"Clapton","fareZones":"2|3","hubCode":null,"wifi":true,"blueBadgeCarParking":false,"blueBadgeCarParkSpaces":null,"taxiRanksOutsideStation":false,"mainBusInterchange":null,"pierInterchange":null,"nationalRailInterchange":null,"airportInterchange":null,"emiratesAirLineInterchange":null,"lat":51.56171440000001,"lon":-0.057042},{"id":"910GCLDNNRB","name":"Caledonian Road & Barnsbury","fareZones":"2","hubCode":null,"wifi":false,"blueBadgeCarParking":false,"blueBadgeCarParkSpaces":null,"taxiRanksOutsideStation":false,"mainBusInterchange":null,"pierInterchange":null,"nationalRailInterchange":null,"airportInterchange":null,"emiratesAirLineInterchange":null,"lat":51.54314975,"lon":-0.11593149999999999},{"id":"910GCLPHHS","name":"Clapham High Street","fareZones":"2","hubCode":null,"wifi":false,"blueBadgeCarParking":false,"blueBadgeCarParkSpaces":null,"taxiRanksOutsideStation":false,"mainBusInterchange":null,"pierInterchange":null,"nationalRailInterchange":null,"airportInterchange":null,"emiratesAirLineInterchange":null,"lat":51.465341499999994,"lon":-0.13207025},{"id":"910GCMDNRD","name":"Camden Road","fareZones":"2","hubCode":null,"wifi":true,"blueBadgeCarParking":false,"blueBadgeCarParkSpaces":null,"taxiRanksOutsideStation":false,"mainBusInterchange":null,"pierInterchange":null,"nationalRailInterchange":null,"airportInterchange":null,"emiratesAirLineInterchange":null,"lat":51.54178566666667,"lon":-0.13876366666666665},{"id":"910GCNNB","name":"Canonbury","fareZones":"2","hubCode":null,"wifi":false,"blueBadgeCarParking":false,"blueBadgeCarParkSpaces":null,"taxiRanksOutsideStation":false,"mainBusInterchange":null,"pierInterchange":null,"nationalRailInterchange":null,"airportInterchange":null,"emiratesAirLineInterchange":null,"lat":51.54874100000001,"lon":-0.092658},{"id":"910GCOLSDNS","name":"Coulsdon South","fareZones":"6","hubCode":null,"wifi":true,"blueBadgeCarParking":false,"blueBadgeCarParkSpaces":null,"taxiRanksOutsideStation":false,"mainBusInterchange":null,"pierInterchange":null,"nationalRailInterchange":null,"airportInterchange":null,"emiratesAirLineInterchange":null,"lat":51.31585016666666,"lon":-0.13790116666666666},{"id":"910GCRKLWD","name":"Cricklewood","fareZones":"3","hubCode":null,"wifi":true,"blueBadgeCarParking":false,"blueBadgeCarParkSpaces":null,"taxiRanksOutsideStation":false,"mainBusInterchange":null,"pierInterchange":null,"nationalRailInterchange":null,"airportInterchange":null,"emiratesAirLineInterchange":null,"lat":51.558662000000005,"lon":-0.212703},{"id":"910GCRLN","name":"Charlton","fareZones":"3","hubCode":null,"wifi":false,"blueBadgeCarParking":false,"blueBadgeCarParkSpaces":null,"taxiRanksOutsideStation":false,"mainBusInterchange":null,"pierInterchange":null,"nationalRailInterchange":null,"airportInterchange":null,"emiratesAirLineInterchange":null,"lat":51.48684057142857,"lon":0.031213571428571427},{"id":"910GCROUCHH","name":"Crouch Hill","fareZones":"3","hubCode":null,"wifi":false,"blueBadgeCarParking":false,"blueBadgeCarParkSpaces":null,"taxiRanksOutsideStation":false,"mainBusInterchange":null,"pierInterchange":null,"nationalRailInterchange":null,"airportInterchange":null,"emiratesAirLineInterchange":null,"lat":51.571360500000004,"lon":-0.11708116666666668},{"id":"910GCRPNDPK","name":"Carpenders Park","fareZones":"7","hubCode":null,"wifi":true,"blueBadgeCarParking":false,"blueBadgeCarParkSpaces":null,"taxiRanksOutsideStation":false,"mainBusInterchange":null,"pierInterchange":null,"nationalRailInterchange":null,"airportInterchange":null,"emiratesAirLineInterchange":null,"lat":51.62840333333333,"lon":-0.3857446666666666},{"id":"910GCRSHLTN","name":"Carshalton","fareZones":"5","hubCode":null,"wifi":true,"blueBadgeCarParking":false,"blueBadgeCarParkSpaces":null,"taxiRanksOutsideStation":false,"mainBusInterchange":null,"pierInterchange":null,"nationalRailInterchange":null,"airportInterchange":null,"emiratesAirLineInterchange":null,"lat":51.36845185714286,"lon":-0.16680771428571428},{"id":"910GCTMSLNK","name":"City Thameslink","fareZones":"1","hubCode":null,"wifi":true,"blueBadgeCarParking":false,"blueBadgeCarParkSpaces":null,"taxiRanksOutsideStation":false,"mainBusInterchange":null,"pierInterchange":null,"nationalRailInterchange":null,"airportInterchange":null,"emiratesAirLineInterchange":null,"lat":51.51503475,"lon":-0.10364837500000001},{"id":"910GDALS","name":"Dalston Junction","fareZones":"2","hubCode":null,"wifi":false,"blueBadgeCarParking":false,"blueBadgeCarParkSpaces":null,"taxiRanksOutsideStation":false,"mainBusInterchange":null,"pierInterchange":null,"nationalRailInterchange":null,"airportInterchange":null,"emiratesAirLineInterchange":null,"lat":51.54586314285714,"lon":-0.07511528571428572},{"id":"910GDALSKLD","name":"Dalston Kingsland","fareZones":"2","hubCode":null,"wifi":false,"blueBadgeCarParking":false,"blueBadgeCarParkSpaces":null,"taxiRanksOutsideStation":false,"mainBusInterchange":null,"pierInterchange":null,"nationalRailInterchange":null,"airportInterchange":null,"emiratesAirLineInterchange":null,"lat":51.548278,"lon":-0.075949},{"id":"910GDARTFD","name":"Dartford","fareZones":"8","hubCode":null,"wifi":false,"blueBadgeCarParking":false,"blueBadgeCarParkSpaces":null,"taxiRanksOutsideStation":false,"mainBusInterchange":null,"pierInterchange":null,"nationalRailInterchange":null,"airportInterchange":null,"emiratesAirLineInterchange":null,"lat":51.4475275,"lon":0.21832483333333333},{"id":"910GDENMRKH","name":"Denmark Hill","fareZones":"2","hubCode":null,"wifi":true,"blueBadgeCarParking":false,"blueBadgeCarParkSpaces":null,"taxiRanksOutsideStation":false,"mainBusInterchange":null,"pierInterchange":null,"nationalRailInterchange":"Partial","airportInterchange":null,"emiratesAirLineInterchange":null,"lat":51.46817983333333,"lon":-0.08943383333333334},{"id":"910GDEPTFD","name":"Deptford","fareZones":"2","hubCode":null,"wifi":false,"blueBadgeCarParking":false,"blueBadgeCarParkSpaces":null,"taxiRanksOutsideStation":false,"mainBusInterchange":null,"pierInterchange":null,"nationalRailInterchange":null,"airportInterchange":null,"emiratesAirLineInterchange":null,"lat":51.478952400000004,"lon":-0.0263692},{"id":"910GEDMNGRN","name":"Edmonton Green","fareZones":"4","hubCode":null,"wifi":true,"blueBadgeCarParking":false,"blueBadgeCarParkSpaces":null,"taxiRanksOutsideStation":false,"mainBusInterchange":null,"pierInterchange":null,"nationalRailInterchange":null,"airportInterchange":null,"emiratesAirLineInterchange":null,"lat":51.6248212,"lon":-0.0613626},{"id":"910GELTR","name":"Elstree & Borehamwood","fareZones":"6","hubCode":null,"wifi":true,"blueBadgeCarParking":false,"blueBadgeCarParkSpaces":null,"taxiRanksOutsideStation":false,"mainBusInterchange":null,"pierInterchange":null,"nationalRailInterchange":null,"airportInterchange":null,"emiratesAirLineInterchange":null,"lat":51.652950875,"lon":-0.27985649999999995},{"id":"910GEMRSPKH","name":"Emerson Park","fareZones":"6","hubCode":null,"wifi":false,"blueBadgeCarParking":false,"blueBadgeCarParkSpaces":null,"taxiRanksOutsideStation":false,"mainBusInterchange":null,"pierInterchange":null,"nationalRailInterchange":null,"airportInterchange":null,"emiratesAirLineInterchange":null,"lat":51.56887025,"lon":0.2199765},{"id":"910GENFLDTN","name":"Enfield Town","fareZones":"5","hubCode":null,"wifi":true,"blueBadgeCarParking":false,"blueBadgeCarParkSpaces":null,"taxiRanksOutsideStation":false,"mainBusInterchange":null,"pierInterchange":null,"nationalRailInterchange":null,"airportInterchange":null,"emiratesAirLineInterchange":null,"lat":51.65223679999999,"lon":-0.0793562},{"id":"910GESTFLDS","name":"Mitcham Eastfields","fareZones":"3","hubCode":null,"wifi":false,"blueBadgeCarParking":false,"blueBadgeCarParkSpaces":null,"taxiRanksOutsideStation":false,"mainBusInterchange":null,"pierInterchange":null,"nationalRailInterchange":null,"airportInterchange":null,"emiratesAirLineInterchange":null,"lat":51.40776927272727,"lon":-0.1546499090909091},{"id":"910GFNCHLYR","name":"Finchley Road & Frognal","fareZones":"2","hubCode":null,"wifi":true,"blueBadgeCarParking":false,"blueBadgeCarParkSpaces":null,"taxiRanksOutsideStation":false,"mainBusInterchange":null,"pierInterchange":null,"nationalRailInterchange":null,"airportInterchange":null,"emiratesAirLineInterchange":null,"lat":51.55009299999999,"lon":-0.1833494},{"id":"910GFORESTH","name":"Forest Hill","fareZones":"3","hubCode":null,"wifi":false,"blueBadgeCarParking":true,"blueBadgeCarParkSpaces":1,"taxiRanksOutsideStation":false,"mainBusInterchange":null,"pierInterchange":null,"nationalRailInterchange":"Partial","airportInterchange":null,"emiratesAirLineInterchange":null,"lat":51.439356375,"lon":-0.053254499999999996},{"id":"910GFRSTGT","name":"Forest Gate","fareZones":"3","hubCode":null,"wifi":false,"blueBadgeCarParking":false,"blueBadgeCarParkSpaces":null,"taxiRanksOutsideStation":false,"mainBusInterchange":null,"pierInterchange":null,"nationalRailInterchange":null,"airportInterchange":null,"emiratesAirLineInterchange":null,"lat":51.549426125000004,"lon":0.024331125},{"id":"910GGIDEAPK","name":"Gidea Park","fareZones":"6","hubCode":null,"wifi":true,"blueBadgeCarParking":false,"blueBadgeCarParkSpaces":null,"taxiRanksOutsideStation":false,"mainBusInterchange":null,"pierInterchange":null,"nationalRailInterchange":null,"airportInterchange":null,"emiratesAirLineInterchange":null,"lat":51.581921857142866,"lon":0.20580642857142856},{"id":"910GGODMAYS","name":"Goodmayes","fareZones":"4","hubCode":null,"wifi":true,"blueBadgeCarParking":false,"blueBadgeCarParkSpaces":null,"taxiRanksOutsideStation":false,"mainBusInterchange":null,"pierInterchange":null,"nationalRailInterchange":null,"airportInterchange":null,"emiratesAirLineInterchange":null,"lat":51.56556928571428,"lon":0.11089928571428573},{"id":"910GGOSPLOK","name":"Gospel Oak","fareZones":"2","hubCode":null,"wifi":true,"blueBadgeCarParking":false,"blueBadgeCarParkSpaces":null,"taxiRanksOutsideStation":false,"mainBusInterchange":null,"pierInterchange":null,"nationalRailInterchange":null,"airportInterchange":null,"emiratesAirLineInterchange":null,"lat":51.555272125,"lon":-0.15120712499999997},{"id":"910GHACKNYC","name":"Hackney Central","fareZones":"2","hubCode":null,"wifi":true,"blueBadgeCarParking":false,"blueBadgeCarParkSpaces":null,"taxiRanksOutsideStation":false,"mainBusInterchange":null,"pierInterchange":null,"nationalRailInterchange":null,"airportInterchange":null,"emiratesAirLineInterchange":null,"lat":51.547236125,"lon":-0.05627725},{"id":"910GHACKNYW","name":"Hackney Wick","fareZones":"2","hubCode":null,"wifi":false,"blueBadgeCarParking":false,"blueBadgeCarParkSpaces":null,"taxiRanksOutsideStation":false,"mainBusInterchange":null,"pierInterchange":null,"nationalRailInterchange":null,"airportInterchange":null,"emiratesAirLineInterchange":null,"lat":51.54321142857143,"lon":-0.025264},{"id":"910GHAGGERS","name":"Haggerston","fareZones":"2","hubCode":null,"wifi":false,"blueBadgeCarParking":false,"blueBadgeCarParkSpaces":null,"taxiRanksOutsideStation":false,"mainBusInterchange":null,"pierInterchange":null,"nationalRailInterchange":null,"airportInterchange":null,"emiratesAirLineInterchange":null,"lat":51.53851,"lon":-0.07550899999999999},{"id":"910GHAKNYNM","name":"Hackney Downs","fareZones":"2","hubCode":null,"wifi":true,"blueBadgeCarParking":false,"blueBadgeCarParkSpaces":null,"taxiRanksOutsideStation":false,"mainBusInterchange":null,"pierInterchange":null,"nationalRailInterchange":null,"airportInterchange":null,"emiratesAirLineInterchange":null,"lat":51.54869425,"lon":-0.060899375},{"id":"910GHANWELL","name":"Hanwell","fareZones":"4","hubCode":null,"wifi":false,"blueBadgeCarParking":false,"blueBadgeCarParkSpaces":null,"taxiRanksOutsideStation":false,"mainBusInterchange":null,"pierInterchange":null,"nationalRailInterchange":null,"airportInterchange":null,"emiratesAirLineInterchange":null,"lat":51.512066000000004,"lon":-0.3381981666666667},{"id":"910GHAYESAH","name":"Hayes & Harlington","fareZones":"5","hubCode":null,"wifi":false,"blueBadgeCarParking":false,"blueBadgeCarParkSpaces":null,"taxiRanksOutsideStation":false,"mainBusInterchange":null,"pierInterchange":null,"nationalRailInterchange":null,"airportInterchange":null,"emiratesAirLineInterchange":null,"lat":51.503143875,"lon":-0.42031799999999997},{"id":"910GHDON","name":"Hendon","fareZones":"3|4","hubCode":null,"wifi":true,"blueBadgeCarParking":false,"blueBadgeCarParkSpaces":null,"taxiRanksOutsideStation":false,"mainBusInterchange":null,"pierInterchange":null,"nationalRailInterchange":null,"airportInterchange":null,"emiratesAirLineInterchange":null,"lat":51.580160571428564,"lon":-0.23878185714285718},{"id":"910GHEDSTNL","name":"Headstone Lane","fareZones":"5","hubCode":null,"wifi":true,"blueBadgeCarParking":false,"blueBadgeCarParkSpaces":null,"taxiRanksOutsideStation":false,"mainBusInterchange":null,"pierInterchange":null,"nationalRailInterchange":null,"airportInterchange":null,"emiratesAirLineInterchange":null,"lat":51.602545142857146,"lon":-0.35680885714285715},{"id":"910GHERNEH","name":"Herne Hill","fareZones":"2|3","hubCode":null,"wifi":false,"blueBadgeCarParking":false,"blueBadgeCarParkSpaces":null,"taxiRanksOutsideStation":false,"mainBusInterchange":null,"pierInterchange":null,"nationalRailInterchange":null,"airportInterchange":null,"emiratesAirLineInterchange":null,"lat":51.453117571428564,"lon":-0.10216957142857143},{"id":"910GHGHMSPK","name":"Highams Park","fareZones":"4","hubCode":null,"wifi":true,"blueBadgeCarParking":true,"blueBadgeCarParkSpaces":2,"taxiRanksOutsideStation":false,"mainBusInterchange":null,"pierInterchange":null,"nationalRailInterchange":null,"airportInterchange":null,"emiratesAirLineInterchange":null,"lat":51.608405000000005,"lon":-0.00037222222222222225},{"id":"910GHKBG","name":"Hackbridge","fareZones":"4","hubCode":null,"wifi":false,"blueBadgeCarParking":false,"blueBadgeCarParkSpaces":null,"taxiRanksOutsideStation":false,"mainBusInterchange":null,"pierInterchange":null,"nationalRailInterchange":null,"airportInterchange":null,"emiratesAirLineInterchange":null,"lat":51.37771416666667,"lon":-0.1536335},{"id":"910GHMPSTDH","name":"Hampstead Heath","fareZones":"2","hubCode":null,"wifi":true,"blueBadgeCarParking":false,"blueBadgeCarParkSpaces":null,"taxiRanksOutsideStation":false,"mainBusInterchange":null,"pierInterchange":null,"nationalRailInterchange":null,"airportInterchange":null,"emiratesAirLineInterchange":null,"lat":51.5553285,"lon":-0.16534325},{"id":"910GHOMRTON","name":"Homerton","fareZones":"2","hubCode":null,"wifi":true,"blueBadgeCarParking":false,"blueBadgeCarParkSpaces":null,"taxiRanksOutsideStation":false,"mainBusInterchange":null,"pierInterchange":null,"nationalRailInterchange":null,"airportInterchange":null,"emiratesAirLineInterchange":null,"lat":51.547058400000004,"lon":-0.0426492},{"id":"910GHONROPK","name":"Honor Oak Park","fareZones":"3","hubCode":null,"wifi":true,"blueBadgeCarParking":false,"blueBadgeCarParkSpaces":null,"taxiRanksOutsideStation":false,"mainBusInterchange":null,"pierInterchange":null,"nationalRailInterchange":null,"airportInterchange":null,"emiratesAirLineInterchange":null,"lat":51.45009280000001,"lon":-0.0454694},{"id":"910GHOXTON","name":"Hoxton","fareZones":"1|2","hubCode":null,"wifi":false,"blueBadgeCarParking":false,"blueBadgeCarParkSpaces":null,"taxiRanksOutsideStation":false,"mainBusInterchange":null,"pierInterchange":null,"nationalRailInterchange":null,"airportInterchange":null,"emiratesAirLineInterchange":null,"lat":51.5312375,"lon":-0.07570266666666667},{"id":"910GHRGYGL","name":"Harringay Green Lanes","fareZones":"3","hubCode":null,"wifi":false,"blueBadgeCarParking":false,"blueBadgeCarParkSpaces":null,"taxiRanksOutsideStation":false,"mainBusInterchange":null,"pierInterchange":null,"nationalRailInterchange":null,"airportInterchange":null,"emiratesAirLineInterchange":null,"lat":51.57723983333333,"lon":-0.09848516666666668},{"id":"910GHRLDWOD","name":"Harold Wood","fareZones":"6","hubCode":null,"wifi":false,"blueBadgeCarParking":true,"blueBadgeCarParkSpaces":2,"taxiRanksOutsideStation":false,"mainBusInterchange":null,"pierInterchange":null,"nationalRailInterchange":null,"airportInterchange":null,"emiratesAirLineInterchange":null,"lat":51.593182875000004,"lon":0.23346849999999997},{"id":"910GHTCHEND","name":"Hatch End","fareZones":"6","hubCode":null,"wifi":false,"blueBadgeCarParking":true,"blueBadgeCarParkSpaces":2,"taxiRanksOutsideStation":false,"mainBusInterchange":null,"pierInterchange":null,"nationalRailInterchange":null,"airportInterchange":null,"emiratesAirLineInterchange":null,"lat":51.609406166666666,"lon":-0.3687123333333333},{"id":"910GHYDNSRD","name":"Haydons Road","fareZones":"3","hubCode":null,"wifi":false,"blueBadgeCarParking":false,"blueBadgeCarParkSpaces":null,"taxiRanksOutsideStation":false,"mainBusInterchange":null,"pierInterchange":null,"nationalRailInterchange":null,"airportInterchange":null,"emiratesAirLineInterchange":null,"lat":51.425359166666674,"lon":-0.1891035},{"id":"910GILFORD","name":"Ilford","fareZones":"4","hubCode":null,"wifi":false,"blueBadgeCarParking":false,"blueBadgeCarParkSpaces":null,"taxiRanksOutsideStation":false,"mainBusInterchange":null,"pierInterchange":null,"nationalRailInterchange":null,"airportInterchange":null,"emiratesAirLineInterchange":null,"lat":51.5589816,"lon":0.0687643},{"id":"910GIVER","name":"Iver","fareZones":"Outside","hubCode":null,"wifi":false,"blueBadgeCarParking":false,"blueBadgeCarParkSpaces":null,"taxiRanksOutsideStation":false,"mainBusInterchange":null,"pierInterchange":null,"nationalRailInterchange":null,"airportInterchange":null,"emiratesAirLineInterchange":null,"lat":51.50851,"lon":-0.5066105},{"id":"910GKENR","name":"Kensal Rise","fareZones":"2","hubCode":null,"wifi":true,"blueBadgeCarParking":false,"blueBadgeCarParkSpaces":null,"taxiRanksOutsideStation":false,"mainBusInterchange":null,"pierInterchange":null,"nationalRailInterchange":null,"airportInterchange":null,"emiratesAirLineInterchange":null,"lat":51.534456285714285,"lon":-0.21982085714285712},{"id":"910GKLBRNHR","name":"Kilburn High Road","fareZones":"2","hubCode":null,"wifi":true,"blueBadgeCarParking":false,"blueBadgeCarParkSpaces":null,"taxiRanksOutsideStation":false,"mainBusInterchange":null,"pierInterchange":null,"nationalRailInterchange":null,"airportInterchange":null,"emiratesAirLineInterchange":null,"lat":51.53758859999999,"lon":-0.192127},{"id":"910GKNTSHTW","name":"Kentish Town West","fareZones":"2","hubCode":null,"wifi":false,"blueBadgeCarParking":false,"blueBadgeCarParkSpaces":null,"taxiRanksOutsideStation":false,"mainBusInterchange":null,"pierInterchange":null,"nationalRailInterchange":null,"airportInterchange":null,"emiratesAirLineInterchange":null,"lat":51.5466038,"lon":-0.1466734},{"id":"910GLANGLEY","name":"Langley","fareZones":"Outside","hubCode":null,"wifi":false,"blueBadgeCarParking":false,"blueBadgeCarParkSpaces":null,"taxiRanksOutsideStation":false,"mainBusInterchange":null,"pierInterchange":null,"nationalRailInterchange":null,"airportInterchange":null,"emiratesAirLineInterchange":null,"lat":51.50793554545455,"lon":-0.5420943636363637},{"id":"910GLBGHJN","name":"Loughborough Junction","fareZones":"2","hubCode":null,"wifi":true,"blueBadgeCarParking":false,"blueBadgeCarParkSpaces":null,"taxiRanksOutsideStation":false,"mainBusInterchange":null,"pierInterchange":null,"nationalRailInterchange":null,"airportInterchange":null,"emiratesAirLineInterchange":null,"lat":51.466109200000005,"lon":-0.102213},{"id":"910GLEYTNMR","name":"Leyton Midland Road","fareZones":"3","hubCode":null,"wifi":true,"blueBadgeCarParking":false,"blueBadgeCarParkSpaces":null,"taxiRanksOutsideStation":false,"mainBusInterchange":null,"pierInterchange":null,"nationalRailInterchange":null,"airportInterchange":null,"emiratesAirLineInterchange":null,"lat":51.569678571428575,"lon":-0.007807142857142855},{"id":"910GLONFLDS","name":"London Fields","fareZones":"2","hubCode":null,"wifi":true,"blueBadgeCarParking":false,"blueBadgeCarParkSpaces":null,"taxiRanksOutsideStation":false,"mainBusInterchange":null,"pierInterchange":null,"nationalRailInterchange":null,"airportInterchange":null,"emiratesAirLineInterchange":null,"lat":51.541274599999994,"lon":-0.0579298},{"id":"910GLYTNSHR","name":"Leytonstone High Road","fareZones":"3","hubCode":null,"wifi":false,"blueBadgeCarParking":false,"blueBadgeCarParkSpaces":null,"taxiRanksOutsideStation":false,"mainBusInterchange":null,"pierInterchange":null,"nationalRailInterchange":null,"airportInterchange":null,"emiratesAirLineInterchange":null,"lat":51.56350566666666,"lon":0.008443166666666667},{"id":"910GMANRPK","name":"Manor Park","fareZones":"3|4","hubCode":null,"wifi":true,"blueBadgeCarParking":false,"blueBadgeCarParkSpaces":null,"taxiRanksOutsideStation":false,"mainBusInterchange":null,"pierInterchange":null,"nationalRailInterchange":null,"airportInterchange":null,"emiratesAirLineInterchange":null,"lat":51.552338,"lon":0.046014},{"id":"910GMAZEH","name":"Maze Hill","fareZones":"3","hubCode":null,"wifi":false,"blueBadgeCarParking":false,"blueBadgeCarParkSpaces":null,"taxiRanksOutsideStation":false,"mainBusInterchange":null,"pierInterchange":null,"nationalRailInterchange":null,"airportInterchange":null,"emiratesAirLineInterchange":null,"lat":51.48276460000001,"lon":0.0030528},{"id":"910GMDNHEAD","name":"Maidenhead","fareZones":"Outside","hubCode":null,"wifi":true,"blueBadgeCarParking":false,"blueBadgeCarParkSpaces":null,"taxiRanksOutsideStation":false,"mainBusInterchange":null,"pierInterchange":null,"nationalRailInterchange":null,"airportInterchange":null,"emiratesAirLineInterchange":null,"lat":51.5185375,"lon":-0.72253075},{"id":"910GMLHB","name":"Mill Hill Broadway","fareZones":"4","hubCode":null,"wifi":true,"blueBadgeCarParking":false,"blueBadgeCarParkSpaces":null,"taxiRanksOutsideStation":false,"mainBusInterchange":null,"pierInterchange":null,"nationalRailInterchange":null,"airportInterchange":null,"emiratesAirLineInterchange":null,"lat":51.61324725,"lon":-0.24931674999999998},{"id":"910GMORDENS","name":"Morden South","fareZones":"4","hubCode":null,"wifi":false,"blueBadgeCarParking":false,"blueBadgeCarParkSpaces":null,"taxiRanksOutsideStation":false,"mainBusInterchange":null,"pierInterchange":null,"nationalRailInterchange":null,"airportInterchange":null,"emiratesAirLineInterchange":null,"lat":51.39643133333333,"lon":-0.19997566666666666},{"id":"910GMRYLAND","name":"Maryland","fareZones":"3","hubCode":null,"wifi":true,"blueBadgeCarParking":false,"blueBadgeCarParkSpaces":null,"taxiRanksOutsideStation":false,"mainBusInterchange":null,"pierInterchange":null,"nationalRailInterchange":null,"airportInterchange":null,"emiratesAirLineInterchange":null,"lat":51.54611988888889,"lon":0.005800888888888888},{"id":"910GNBARNET","name":"New Barnet","fareZones":"5","hubCode":null,"wifi":true,"blueBadgeCarParking":false,"blueBadgeCarParkSpaces":null,"taxiRanksOutsideStation":false,"mainBusInterchange":null,"pierInterchange":null,"nationalRailInterchange":null,"airportInterchange":null,"emiratesAirLineInterchange":null,"lat":51.64859728571428,"lon":-0.1729034285714286},{"id":"910GNEWSGAT","name":"New Southgate","fareZones":"4","hubCode":null,"wifi":false,"blueBadgeCarParking":false,"blueBadgeCarParkSpaces":null,"taxiRanksOutsideStation":false,"mainBusInterchange":null,"pierInterchange":null,"nationalRailInterchange":null,"airportInterchange":null,"emiratesAirLineInterchange":null,"lat":51.61452971428571,"lon":-0.14338414285714288},{"id":"910GNUNHEAD","name":"Nunhead","fareZones":"2","hubCode":null,"wifi":false,"blueBadgeCarParking":false,"blueBadgeCarParkSpaces":null,"taxiRanksOutsideStation":false,"mainBusInterchange":null,"pierInterchange":null,"nationalRailInterchange":null,"airportInterchange":null,"emiratesAirLineInterchange":null,"lat":51.46664766666667,"lon":-0.051786},{"id":"910GOKLGHPK","name":"Oakleigh Park","fareZones":"4","hubCode":null,"wifi":true,"blueBadgeCarParking":false,"blueBadgeCarParkSpaces":null,"taxiRanksOutsideStation":false,"mainBusInterchange":null,"pierInterchange":null,"nationalRailInterchange":null,"airportInterchange":null,"emiratesAirLineInterchange":null,"lat":51.63756985714286,"lon":-0.16613128571428573},{"id":"910GORPNGTN","name":"Orpington","fareZones":"6","hubCode":null,"wifi":false,"blueBadgeCarParking":false,"blueBadgeCarParkSpaces":null,"taxiRanksOutsideStation":false,"mainBusInterchange":null,"pierInterchange":null,"nationalRailInterchange":null,"airportInterchange":null,"emiratesAirLineInterchange":null,"lat":51.37356476923076,"lon":0.08862638461538462},{"id":"910GPCKHMQD","name":"Queens Road Peckham","fareZones":"2","hubCode":null,"wifi":true,"blueBadgeCarParking":false,"blueBadgeCarParkSpaces":null,"taxiRanksOutsideStation":false,"mainBusInterchange":null,"pierInterchange":null,"nationalRailInterchange":"Partial","airportInterchange":null,"emiratesAirLineInterchange":null,"lat":51.47370225,"lon":-0.057466249999999997},{"id":"910GPCKHMRY","name":"Peckham Rye","fareZones":"2","hubCode":null,"wifi":false,"blueBadgeCarParking":false,"blueBadgeCarParkSpaces":null,"taxiRanksOutsideStation":false,"mainBusInterchange":null,"pierInterchange":null,"nationalRailInterchange":null,"airportInterchange":null,"emiratesAirLineInterchange":null,"lat":51.46993883333334,"lon":-0.069644},{"id":"910GPENEW","name":"Penge West","fareZones":"4","hubCode":null,"wifi":true,"blueBadgeCarParking":true,"blueBadgeCarParkSpaces":2,"taxiRanksOutsideStation":false,"mainBusInterchange":null,"pierInterchange":null,"nationalRailInterchange":null,"airportInterchange":null,"emiratesAirLineInterchange":null,"lat":51.417596333333336,"lon":-0.06099383333333333},{"id":"910GPETSWD","name":"Petts Wood","fareZones":"5","hubCode":null,"wifi":false,"blueBadgeCarParking":false,"blueBadgeCarParkSpaces":null,"taxiRanksOutsideStation":false,"mainBusInterchange":null,"pierInterchange":null,"nationalRailInterchange":null,"airportInterchange":null,"emiratesAirLineInterchange":null,"lat":51.38878783333334,"lon":0.07422716666666666},{"id":"910GPLMS","name":"Plumstead","fareZones":"4","hubCode":null,"wifi":false,"blueBadgeCarParking":false,"blueBadgeCarParkSpaces":null,"taxiRanksOutsideStation":false,"mainBusInterchange":null,"pierInterchange":null,"nationalRailInterchange":null,"airportInterchange":null,"emiratesAirLineInterchange":null,"lat":51.489598857142845,"lon":0.085013},{"id":"910GPURLEY","name":"Purley","fareZones":"6","hubCode":null,"wifi":true,"blueBadgeCarParking":false,"blueBadgeCarParkSpaces":null,"taxiRanksOutsideStation":false,"mainBusInterchange":null,"pierInterchange":null,"nationalRailInterchange":null,"airportInterchange":null,"emiratesAirLineInterchange":null,"lat":51.33767222222222,"lon":-0.113797},{"id":"910GRBRN","name":"Ravensbourne","fareZones":"4","hubCode":null,"wifi":false,"blueBadgeCarParking":false,"blueBadgeCarParkSpaces":null,"taxiRanksOutsideStation":false,"mainBusInterchange":null,"pierInterchange":null,"nationalRailInterchange":null,"airportInterchange":null,"emiratesAirLineInterchange":null,"lat":51.413969599999994,"lon":-0.0071638},{"id":"910GRCTRYRD","name":"Rectory Road","fareZones":"2","hubCode":null,"wifi":true,"blueBadgeCarParking":false,"blueBadgeCarParkSpaces":null,"taxiRanksOutsideStation":false,"mainBusInterchange":null,"pierInterchange":null,"nationalRailInterchange":null,"airportInterchange":null,"emiratesAirLineInterchange":null,"lat":51.558907749999996,"lon":-0.06868625},{"id":"910GRDNGSTN","name":"Reading","fareZones":"Outside","hubCode":null,"wifi":false,"blueBadgeCarParking":false,"blueBadgeCarParkSpaces":null,"taxiRanksOutsideStation":false,"mainBusInterchange":null,"pierInterchange":null,"nationalRailInterchange":null,"airportInterchange":null,"emiratesAirLineInterchange":null,"lat":51.458689166666666,"lon":-0.9717957500000002},{"id":"910GROMFORD","name":"Romford","fareZones":"6","hubCode":null,"wifi":true,"blueBadgeCarParking":false,"blueBadgeCarParkSpaces":null,"taxiRanksOutsideStation":false,"mainBusInterchange":null,"pierInterchange":null,"nationalRailInterchange":"Partial","airportInterchange":null,"emiratesAirLineInterchange":null,"lat":51.5746559090909,"lon":0.1829562727272727},{"id":"910GRTHERHI","name":"Rotherhithe","fareZones":"2","hubCode":null,"wifi":false,"blueBadgeCarParking":false,"blueBadgeCarParkSpaces":null,"taxiRanksOutsideStation":false,"mainBusInterchange":null,"pierInterchange":null,"nationalRailInterchange":null,"airportInterchange":null,"emiratesAirLineInterchange":null,"lat":51.50085933333333,"lon":-0.052104166666666674},{"id":"910GSACTON","name":"South Acton","fareZones":"3","hubCode":null,"wifi":true,"blueBadgeCarParking":false,"blueBadgeCarParkSpaces":null,"taxiRanksOutsideStation":false,"mainBusInterchange":null,"pierInterchange":null,"nationalRailInterchange":null,"airportInterchange":null,"emiratesAirLineInterchange":null,"lat":51.499613714285715,"lon":-0.269977},{"id":"910GSBURY","name":"Southbury","fareZones":"5","hubCode":null,"wifi":true,"blueBadgeCarParking":false,"blueBadgeCarParkSpaces":null,"taxiRanksOutsideStation":false,"mainBusInterchange":null,"pierInterchange":null,"nationalRailInterchange":null,"airportInterchange":null,"emiratesAirLineInterchange":null,"lat":51.648478499999996,"lon":-0.0527175},{"id":"910GSCROYDN","name":"South Croydon","fareZones":"5","hubCode":null,"wifi":true,"blueBadgeCarParking":false,"blueBadgeCarParkSpaces":null,"taxiRanksOutsideStation":false,"mainBusInterchange":null,"pierInterchange":null,"nationalRailInterchange":null,"airportInterchange":null,"emiratesAirLineInterchange":null,"lat":51.36282728571428,"lon":-0.09371671428571428},{"id":"910GSHENFLD","name":"Shenfield","fareZones":"Outside","hubCode":null,"wifi":true,"blueBadgeCarParking":false,"blueBadgeCarParkSpaces":null,"taxiRanksOutsideStation":false,"mainBusInterchange":null,"pierInterchange":null,"nationalRailInterchange":"Partial","airportInterchange":null,"emiratesAirLineInterchange":null,"lat":51.63085266666667,"lon":0.32979949999999997},{"id":"910GSHLIER","name":"St Helier (London)","fareZones":"4","hubCode":null,"wifi":false,"blueBadgeCarParking":false,"blueBadgeCarParkSpaces":null,"taxiRanksOutsideStation":false,"mainBusInterchange":null,"pierInterchange":null,"nationalRailInterchange":null,"airportInterchange":null,"emiratesAirLineInterchange":null,"lat":51.38987966666667,"lon":-0.19788533333333333},{"id":"910GSHMPSTD","name":"South Hampstead","fareZones":"2","hubCode":null,"wifi":false,"blueBadgeCarParking":false,"blueBadgeCarParkSpaces":null,"taxiRanksOutsideStation":false,"mainBusInterchange":null,"pierInterchange":null,"nationalRailInterchange":null,"airportInterchange":null,"emiratesAirLineInterchange":null,"lat":51.541563000000004,"lon":-0.17886875000000002},{"id":"910GSHRDHST","name":"Shoreditch High Street","fareZones":"1","hubCode":null,"wifi":false,"blueBadgeCarParking":false,"blueBadgeCarParkSpaces":null,"taxiRanksOutsideStation":false,"mainBusInterchange":null,"pierInterchange":null,"nationalRailInterchange":null,"airportInterchange":null,"emiratesAirLineInterchange":null,"lat":51.5232525,"lon":-0.07658469999999999},{"id":"910GSHRTLND","name":"Shortlands","fareZones":"4","hubCode":null,"wifi":false,"blueBadgeCarParking":false,"blueBadgeCarParkSpaces":null,"taxiRanksOutsideStation":false,"mainBusInterchange":null,"pierInterchange":null,"nationalRailInterchange":null,"airportInterchange":null,"emiratesAirLineInterchange":null,"lat":51.4059415,"lon":0.0018495},{"id":"910GSIVRST","name":"Silver Street","fareZones":"4","hubCode":null,"wifi":true,"blueBadgeCarParking":false,"blueBadgeCarParkSpaces":null,"taxiRanksOutsideStation":false,"mainBusInterchange":null,"pierInterchange":null,"nationalRailInterchange":null,"airportInterchange":null,"emiratesAirLineInterchange":null,"lat":51.615309249999996,"lon":-0.06696075},{"id":"910GSLADEGN","name":"Slade Green","fareZones":"6","hubCode":null,"wifi":false,"blueBadgeCarParking":false,"blueBadgeCarParkSpaces":null,"taxiRanksOutsideStation":false,"mainBusInterchange":null,"pierInterchange":null,"nationalRailInterchange":null,"airportInterchange":null,"emiratesAirLineInterchange":null,"lat":51.467694375,"lon":0.190379125},{"id":"910GSLOUGH","name":"Slough","fareZones":"Outside","hubCode":null,"wifi":true,"blueBadgeCarParking":false,"blueBadgeCarParkSpaces":null,"taxiRanksOutsideStation":false,"mainBusInterchange":null,"pierInterchange":null,"nationalRailInterchange":null,"airportInterchange":null,"emiratesAirLineInterchange":null,"lat":51.511976250000004,"lon":-0.5913883750000001},{"id":"910GSMERTON","name":"South Merton","fareZones":"4","hubCode":null,"wifi":false,"blueBadgeCarParking":false,"blueBadgeCarParkSpaces":null,"taxiRanksOutsideStation":false,"mainBusInterchange":null,"pierInterchange":null,"nationalRailInterchange":null,"airportInterchange":null,"emiratesAirLineInterchange":null,"lat":51.402803000000006,"lon":-0.20517433333333335},{"id":"910GSTHALL","name":"Southall","fareZones":"4","hubCode":null,"wifi":false,"blueBadgeCarParking":false,"blueBadgeCarParkSpaces":null,"taxiRanksOutsideStation":false,"mainBusInterchange":null,"pierInterchange":null,"nationalRailInterchange":null,"airportInterchange":null,"emiratesAirLineInterchange":null,"lat":51.50596983333333,"lon":-0.3781653333333333},{"id":"910GSTJMSST","name":"St James Street","fareZones":"3","hubCode":null,"wifi":true,"blueBadgeCarParking":false,"blueBadgeCarParkSpaces":null,"taxiRanksOutsideStation":false,"mainBusInterchange":null,"pierInterchange":null,"nationalRailInterchange":null,"airportInterchange":null,"emiratesAirLineInterchange":null,"lat":51.5810692,"lon":-0.0326952},{"id":"910GSTKNWNG","name":"Stoke Newington","fareZones":"2","hubCode":null,"wifi":true,"blueBadgeCarParking":false,"blueBadgeCarParkSpaces":null,"taxiRanksOutsideStation":false,"mainBusInterchange":null,"pierInterchange":null,"nationalRailInterchange":null,"airportInterchange":null,"emiratesAirLineInterchange":null,"lat":51.56495100000001,"lon":-0.07262266666666665},{"id":"910GSTMFDHL","name":"Stamford Hill","fareZones":"3","hubCode":null,"wifi":true,"blueBadgeCarParking":false,"blueBadgeCarParkSpaces":null,"taxiRanksOutsideStation":false,"mainBusInterchange":null,"pierInterchange":null,"nationalRailInterchange":null,"airportInterchange":null,"emiratesAirLineInterchange":null,"lat":51.574712999999996,"lon":-0.076631},{"id":"910GSTMRYC","name":"St Mary Cray","fareZones":"6","hubCode":null,"wifi":false,"blueBadgeCarParking":false,"blueBadgeCarParkSpaces":null,"taxiRanksOutsideStation":false,"mainBusInterchange":null,"pierInterchange":null,"nationalRailInterchange":null,"airportInterchange":null,"emiratesAirLineInterchange":null,"lat":51.39506866666667,"lon":0.10694683333333332},{"id":"910GSTOTNHM","name":"South Tottenham","fareZones":"3","hubCode":null,"wifi":false,"blueBadgeCarParking":false,"blueBadgeCarParkSpaces":null,"taxiRanksOutsideStation":false,"mainBusInterchange":null,"pierInterchange":null,"nationalRailInterchange":null,"airportInterchange":null,"emiratesAirLineInterchange":null,"lat":51.580529333333324,"lon":-0.07218983333333334},{"id":"910GSTRETHM","name":"Streatham","fareZones":"3","hubCode":null,"wifi":true,"blueBadgeCarParking":false,"blueBadgeCarParkSpaces":null,"taxiRanksOutsideStation":false,"mainBusInterchange":null,"pierInterchange":null,"nationalRailInterchange":null,"airportInterchange":null,"emiratesAirLineInterchange":null,"lat":51.42597383333333,"lon":-0.13097316666666667},{"id":"910GSURREYQ","name":"Surrey Quays","fareZones":"2","hubCode":null,"wifi":false,"blueBadgeCarParking":false,"blueBadgeCarParkSpaces":null,"taxiRanksOutsideStation":false,"mainBusInterchange":null,"pierInterchange":null,"nationalRailInterchange":null,"airportInterchange":null,"emiratesAirLineInterchange":null,"lat":51.49331771428571,"lon":-0.04772314285714285},{"id":"910GSUTTON","name":"Sutton","fareZones":"5","hubCode":null,"wifi":true,"blueBadgeCarParking":false,"blueBadgeCarParkSpaces":null,"taxiRanksOutsideStation":false,"mainBusInterchange":null,"pierInterchange":null,"nationalRailInterchange":null,"airportInterchange":null,"emiratesAirLineInterchange":null,"lat":51.35956972727272,"lon":-0.19056972727272725},{"id":"910GSUTTONC","name":"Sutton Common","fareZones":"4","hubCode":null,"wifi":false,"blueBadgeCarParking":false,"blueBadgeCarParkSpaces":null,"taxiRanksOutsideStation":false,"mainBusInterchange":null,"pierInterchange":null,"nationalRailInterchange":null,"airportInterchange":null,"emiratesAirLineInterchange":null,"lat":51.37498566666667,"lon":-0.19658766666666663},{"id":"910GSVNKNGS","name":"Seven Kings","fareZones":"4","hubCode":null,"wifi":true,"blueBadgeCarParking":false,"blueBadgeCarParkSpaces":null,"taxiRanksOutsideStation":false,"mainBusInterchange":null,"pierInterchange":null,"nationalRailInterchange":null,"airportInterchange":null,"emiratesAirLineInterchange":null,"lat":51.563963125,"lon":0.097074125},{"id":"910GSWLY","name":"Swanley","fareZones":"8","hubCode":null,"wifi":false,"blueBadgeCarParking":false,"blueBadgeCarParkSpaces":null,"taxiRanksOutsideStation":false,"mainBusInterchange":null,"pierInterchange":null,"nationalRailInterchange":null,"airportInterchange":null,"emiratesAirLineInterchange":null,"lat":51.39342133333333,"lon":0.168556},{"id":"910GTAPLOW","name":"Taplow","fareZones":"Outside","hubCode":null,"wifi":false,"blueBadgeCarParking":false,"blueBadgeCarParkSpaces":null,"taxiRanksOutsideStation":false,"mainBusInterchange":null,"pierInterchange":null,"nationalRailInterchange":null,"airportInterchange":null,"emiratesAirLineInterchange":null,"lat":51.52341962499999,"lon":-0.6815076250000001},{"id":"910GTHBLDSG","name":"Theobalds Grove","fareZones":"7","hubCode":null,"wifi":true,"blueBadgeCarParking":false,"blueBadgeCarParkSpaces":null,"taxiRanksOutsideStation":false,"mainBusInterchange":null,"pierInterchange":null,"nationalRailInterchange":null,"airportInterchange":null,"emiratesAirLineInterchange":null,"lat":51.6922452,"lon":-0.03510100000000001},{"id":"910GTOOTING","name":"Tooting","fareZones":"3","hubCode":null,"wifi":true,"blueBadgeCarParking":false,"blueBadgeCarParkSpaces":null,"taxiRanksOutsideStation":false,"mainBusInterchange":null,"pierInterchange":null,"nationalRailInterchange":null,"airportInterchange":null,"emiratesAirLineInterchange":null,"lat":51.41989050000001,"lon":-0.161192},{"id":"910GTULSEH","name":"Tulse Hill","fareZones":"3","hubCode":null,"wifi":true,"blueBadgeCarParking":false,"blueBadgeCarParkSpaces":null,"taxiRanksOutsideStation":false,"mainBusInterchange":null,"pierInterchange":null,"nationalRailInterchange":null,"airportInterchange":null,"emiratesAirLineInterchange":null,"lat":51.439856999999996,"lon":-0.10505455555555554},{"id":"910GTURKYST","name":"Turkey Street","fareZones":"6","hubCode":null,"wifi":true,"blueBadgeCarParking":false,"blueBadgeCarParkSpaces":null,"taxiRanksOutsideStation":false,"mainBusInterchange":null,"pierInterchange":null,"nationalRailInterchange":null,"airportInterchange":null,"emiratesAirLineInterchange":null,"lat":51.67232366666667,"lon":-0.046227},{"id":"910GTWYFORD","name":"Twyford","fareZones":"Outside","hubCode":null,"wifi":true,"blueBadgeCarParking":false,"blueBadgeCarParkSpaces":null,"taxiRanksOutsideStation":false,"mainBusInterchange":null,"pierInterchange":null,"nationalRailInterchange":null,"airportInterchange":null,"emiratesAirLineInterchange":null,"lat":51.475463,"lon":-0.8632431111111112},{"id":"910GUPRHLWY","name":"Upper Holloway","fareZones":"2","hubCode":null,"wifi":false,"blueBadgeCarParking":false,"blueBadgeCarParkSpaces":null,"taxiRanksOutsideStation":false,"mainBusInterchange":null,"pierInterchange":null,"nationalRailInterchange":null,"airportInterchange":null,"emiratesAirLineInterchange":null,"lat":51.56360216666667,"lon":-0.12968233333333334},{"id":"910GWAPPING","name":"Wapping","fareZones":"2","hubCode":null,"wifi":false,"blueBadgeCarParking":false,"blueBadgeCarParkSpaces":null,"taxiRanksOutsideStation":false,"mainBusInterchange":null,"pierInterchange":null,"nationalRailInterchange":null,"airportInterchange":null,"emiratesAirLineInterchange":null,"lat":51.50457783333334,"lon":-0.056004500000000006},{"id":"910GWATFDHS","name":"Watford High Street","fareZones":"8","hubCode":null,"wifi":true,"blueBadgeCarParking":false,"blueBadgeCarParkSpaces":null,"taxiRanksOutsideStation":false,"mainBusInterchange":null,"pierInterchange":null,"nationalRailInterchange":null,"airportInterchange":null,"emiratesAirLineInterchange":null,"lat":51.65229866666667,"lon":-0.39187333333333335},{"id":"910GWCOMBEP","name":"Westcombe Park","fareZones":"3","hubCode":null,"wifi":false,"blueBadgeCarParking":false,"blueBadgeCarParkSpaces":null,"taxiRanksOutsideStation":false,"mainBusInterchange":null,"pierInterchange":null,"nationalRailInterchange":null,"airportInterchange":null,"emiratesAirLineInterchange":null,"lat":51.48416728571429,"lon":0.018771714285714287},{"id":"910GWDGRNPK","name":"Woodgrange Park","fareZones":"3|4","hubCode":null,"wifi":true,"blueBadgeCarParking":false,"blueBadgeCarParkSpaces":null,"taxiRanksOutsideStation":false,"mainBusInterchange":null,"pierInterchange":null,"nationalRailInterchange":null,"airportInterchange":null,"emiratesAirLineInterchange":null,"lat":51.549260600000004,"lon":0.044201000000000004},{"id":"910GWDRYTON","name":"West Drayton","fareZones":"6","hubCode":null,"wifi":false,"blueBadgeCarParking":false,"blueBadgeCarParkSpaces":null,"taxiRanksOutsideStation":false,"mainBusInterchange":null,"pierInterchange":null,"nationalRailInterchange":null,"airportInterchange":null,"emiratesAirLineInterchange":null,"lat":51.509887666666664,"lon":-0.4722671111111111},{"id":"910GWDST","name":"Wood Street","fareZones":"4","hubCode":null,"wifi":true,"blueBadgeCarParking":false,"blueBadgeCarParkSpaces":null,"taxiRanksOutsideStation":false,"mainBusInterchange":null,"pierInterchange":null,"nationalRailInterchange":null,"airportInterchange":null,"emiratesAirLineInterchange":null,"lat":51.58671,"lon":-0.0024052},{"id":"910GWEALING","name":"West Ealing","fareZones":"3","hubCode":null,"wifi":false,"blueBadgeCarParking":false,"blueBadgeCarParkSpaces":null,"taxiRanksOutsideStation":false,"mainBusInterchange":null,"pierInterchange":null,"nationalRailInterchange":null,"airportInterchange":null,"emiratesAirLineInterchange":null,"lat":51.513642000000004,"lon":-0.32099859999999997},{"id":"910GWHHRTLA","name":"White Hart Lane","fareZones":"3","hubCode":null,"wifi":true,"blueBadgeCarParking":false,"blueBadgeCarParkSpaces":null,"taxiRanksOutsideStation":false,"mainBusInterchange":null,"pierInterchange":null,"nationalRailInterchange":null,"airportInterchange":null,"emiratesAirLineInterchange":null,"lat":51.60521266666667,"lon":-0.070201},{"id":"910GWHMDSTD","name":"West Hampstead","fareZones":"2","hubCode":"HUBWHD","wifi":true,"blueBadgeCarParking":false,"blueBadgeCarParkSpaces":null,"taxiRanksOutsideStation":false,"mainBusInterchange":null,"pierInterchange":null,"nationalRailInterchange":null,"airportInterchange":null,"emiratesAirLineInterchange":null,"lat":51.54736725000001,"lon":-0.191639},{"id":"910GWHMPSTM","name":"West Hampstead Thameslink","fareZones":"2","hubCode":"HUBWHD","wifi":true,"blueBadgeCarParking":false,"blueBadgeCarParkSpaces":null,"taxiRanksOutsideStation":false,"mainBusInterchange":null,"pierInterchange":null,"nationalRailInterchange":null,"airportInterchange":null,"emiratesAirLineInterchange":null,"lat":51.548389799999995,"lon":-0.19202170000000002},{"id":"910GWIMLCHS","name":"Wimbledon Chase","fareZones":"3","hubCode":null,"wifi":false,"blueBadgeCarParking":false,"blueBadgeCarParkSpaces":null,"taxiRanksOutsideStation":false,"mainBusInterchange":null,"pierInterchange":null,"nationalRailInterchange":null,"airportInterchange":null,"emiratesAirLineInterchange":null,"lat":51.40941433333333,"lon":-0.21396},{"id":"910GWLTHQRD","name":"Walthamstow Queen's Road","fareZones":"3","hubCode":null,"wifi":false,"blueBadgeCarParking":false,"blueBadgeCarParkSpaces":null,"taxiRanksOutsideStation":false,"mainBusInterchange":null,"pierInterchange":null,"nationalRailInterchange":null,"airportInterchange":null,"emiratesAirLineInterchange":null,"lat":51.581599749999995,"lon":-0.0240835},{"id":"910GWNDSWRD","name":"Wandsworth Road","fareZones":"2","hubCode":null,"wifi":false,"blueBadgeCarParking":false,"blueBadgeCarParkSpaces":null,"taxiRanksOutsideStation":false,"mainBusInterchange":null,"pierInterchange":null,"nationalRailInterchange":null,"airportInterchange":null,"emiratesAirLineInterchange":null,"lat":51.470104000000006,"lon":-0.13850142857142858},{"id":"910GWNSTDPK","name":"Wanstead Park","fareZones":"3","hubCode":null,"wifi":false,"blueBadgeCarParking":false,"blueBadgeCarParkSpaces":null,"taxiRanksOutsideStation":false,"mainBusInterchange":null,"pierInterchange":null,"nationalRailInterchange":null,"airportInterchange":null,"emiratesAirLineInterchange":null,"lat":51.5517354,"lon":0.025536999999999997},{"id":"910GWSUTTON","name":"West Sutton","fareZones":"5","hubCode":null,"wifi":false,"blueBadgeCarParking":false,"blueBadgeCarParkSpaces":null,"taxiRanksOutsideStation":false,"mainBusInterchange":null,"pierInterchange":null,"nationalRailInterchange":null,"airportInterchange":null,"emiratesAirLineInterchange":null,"lat":51.36603933333333,"lon":-0.20528066666666667},{"id":"940GZZALGWP","name":"Greenwich Peninsula","fareZones":"Outside","hubCode":"HUBNGW","wifi":false,"blueBadgeCarParking":false,"blueBadgeCarParkSpaces":null,"taxiRanksOutsideStation":false,"mainBusInterchange":null,"pierInterchange":"Full","nationalRailInterchange":null,"airportInterchange":null,"emiratesAirLineInterchange":null,"lat":51.49983433333333,"lon":0.008029333333333335},{"id":"940GZZALRDK","name":"Royal Docks","fareZones":"Outside","hubCode":"HUBRVC","wifi":false,"blueBadgeCarParking":false,"blueBadgeCarParkSpaces":null,"taxiRanksOutsideStation":false,"mainBusInterchange":null,"pierInterchange":null,"nationalRailInterchange":null,"airportInterchange":null,"emiratesAirLineInterchange":null,"lat":51.50772624999999,"lon":0.0177335},{"id":"940GZZCRADD","name":"Addiscombe","fareZones":"Trams fare zone","hubCode":null,"wifi":false,"blueBadgeCarParking":false,"blueBadgeCarParkSpaces":null,"taxiRanksOutsideStation":false,"mainBusInterchange":null,"pierInterchange":null,"nationalRailInterchange":null,"airportInterchange":null,"emiratesAirLineInterchange":null,"lat":51.3799155,"lon":-0.0731765},{"id":"940GZZCRADV","name":"Addington Village","fareZones":"Trams fare zone","hubCode":null,"wifi":false,"blueBadgeCarParking":false,"blueBadgeCarParkSpaces":null,"taxiRanksOutsideStation":false,"mainBusInterchange":null,"pierInterchange":null,"nationalRailInterchange":null,"airportInterchange":null,"emiratesAirLineInterchange":null,"lat":51.356356,"lon":-0.032416},{"id":"940GZZCRAMP","name":"Ampere Way","fareZones":"Trams fare zone","hubCode":null,"wifi":false,"blueBadgeCarParking":false,"blueBadgeCarParkSpaces":null,"taxiRanksOutsideStation":false,"mainBusInterchange":null,"pierInterchange":null,"nationalRailInterchange":null,"airportInterchange":null,"emiratesAirLineInterchange":null,"lat":51.38220666666666,"lon":-0.12365033333333332},{"id":"940GZZCRARA","name":"Arena","fareZones":"Trams fare zone","hubCode":null,"wifi":false,"blueBadgeCarParking":false,"blueBadgeCarParkSpaces":null,"taxiRanksOutsideStation":false,"mainBusInterchange":null,"pierInterchange":null,"nationalRailInterchange":null,"airportInterchange":null,"emiratesAirLineInterchange":null,"lat":51.390373249999996,"lon":-0.057734749999999994},{"id":"940GZZCRAVE","name":"Avenue Road","fareZones":"Trams fare zone","hubCode":null,"wifi":false,"blueBadgeCarParking":false,"blueBadgeCarParkSpaces":null,"taxiRanksOutsideStation":false,"mainBusInterchange":null,"pierInterchange":null,"nationalRailInterchange":null,"airportInterchange":null,"emiratesAirLineInterchange":null,"lat":51.406842499999996,"lon":-0.049179},{"id":"940GZZCRBED","name":"Beddington Lane","fareZones":"Trams fare zone","hubCode":null,"wifi":false,"blueBadgeCarParking":false,"blueBadgeCarParkSpaces":null,"taxiRanksOutsideStation":false,"mainBusInterchange":null,"pierInterchange":null,"nationalRailInterchange":null,"airportInterchange":null,"emiratesAirLineInterchange":null,"lat":51.38886166666666,"lon":-0.14173233333333332},{"id":"940GZZCRBGV","name":"Belgrave Walk","fareZones":"Trams fare zone","hubCode":null,"wifi":false,"blueBadgeCarParking":false,"blueBadgeCarParkSpaces":null,"taxiRanksOutsideStation":false,"mainBusInterchange":null,"pierInterchange":null,"nationalRailInterchange":null,"airportInterchange":null,"emiratesAirLineInterchange":null,"lat":51.40054675,"lon":-0.1785595},{"id":"940GZZCRBLA","name":"Blackhorse Lane","fareZones":"Trams fare zone","hubCode":null,"wifi":false,"blueBadgeCarParking":false,"blueBadgeCarParkSpaces":null,"taxiRanksOutsideStation":false,"mainBusInterchange":null,"pierInterchange":null,"nationalRailInterchange":null,"airportInterchange":null,"emiratesAirLineInterchange":null,"lat":51.385018333333335,"lon":-0.07103533333333334},{"id":"940GZZCRBRD","name":"Beckenham Road","fareZones":"Trams fare zone","hubCode":null,"wifi":false,"blueBadgeCarParking":false,"blueBadgeCarParkSpaces":null,"taxiRanksOutsideStation":false,"mainBusInterchange":null,"pierInterchange":null,"nationalRailInterchange":null,"airportInterchange":null,"emiratesAirLineInterchange":null,"lat":51.409408000000006,"lon":-0.043469},{"id":"940GZZCRCEN","name":"George Street","fareZones":"Trams fare zone","hubCode":null,"wifi":false,"blueBadgeCarParking":false,"blueBadgeCarParkSpaces":null,"taxiRanksOutsideStation":false,"mainBusInterchange":null,"pierInterchange":null,"nationalRailInterchange":null,"airportInterchange":null,"emiratesAirLineInterchange":null,"lat":51.373953,"lon":-0.098776},{"id":"940GZZCRCHR","name":"Church Street","fareZones":"Trams fare zone","hubCode":null,"wifi":false,"blueBadgeCarParking":false,"blueBadgeCarParkSpaces":null,"taxiRanksOutsideStation":false,"mainBusInterchange":null,"pierInterchange":null,"nationalRailInterchange":null,"airportInterchange":null,"emiratesAirLineInterchange":null,"lat":51.37392233333333,"lon":-0.10489366666666666},{"id":"940GZZCRCOO","name":"Coombe Lane","fareZones":"Trams fare zone","hubCode":null,"wifi":false,"blueBadgeCarParking":false,"blueBadgeCarParkSpaces":null,"taxiRanksOutsideStation":false,"mainBusInterchange":null,"pierInterchange":null,"nationalRailInterchange":null,"airportInterchange":null,"emiratesAirLineInterchange":null,"lat":51.359625400000006,"lon":-0.058553},{"id":"940GZZCRCTR","name":"Centrale","fareZones":"Trams fare zone","hubCode":null,"wifi":false,"blueBadgeCarParking":false,"blueBadgeCarParkSpaces":null,"taxiRanksOutsideStation":false,"mainBusInterchange":null,"pierInterchange":null,"nationalRailInterchange":null,"airportInterchange":null,"emiratesAirLineInterchange":null,"lat":51.37593433333333,"lon":-0.10364166666666667},{"id":"940GZZCRDDR","name":"Dundonald Road","fareZones":"Trams fare zone","hubCode":null,"wifi":false,"blueBadgeCarParking":false,"blueBadgeCarParkSpaces":null,"taxiRanksOutsideStation":false,"mainBusInterchange":null,"pierInterchange":null,"nationalRailInterchange":null,"airportInterchange":null,"emiratesAirLineInterchange":null,"lat":51.4174935,"lon":-0.207595},{"id":"940GZZCRFLD","name":"Fieldway","fareZones":"Trams fare zone","hubCode":null,"wifi":false,"blueBadgeCarParking":false,"blueBadgeCarParkSpaces":null,"taxiRanksOutsideStation":false,"mainBusInterchange":null,"pierInterchange":null,"nationalRailInterchange":null,"airportInterchange":null,"emiratesAirLineInterchange":null,"lat":51.35110433333333,"lon":-0.02414833333333333},{"id":"940GZZCRGRA","name":"Gravel Hill","fareZones":"Trams fare zone","hubCode":null,"wifi":false,"blueBadgeCarParking":false,"blueBadgeCarParkSpaces":null,"taxiRanksOutsideStation":false,"mainBusInterchange":null,"pierInterchange":null,"nationalRailInterchange":null,"airportInterchange":null,"emiratesAirLineInterchange":null,"lat":51.3541985,"lon":-0.041456},{"id":"940GZZCRHAR","name":"Harrington Road","fareZones":"Trams fare zone","hubCode":null,"wifi":false,"blueBadgeCarParking":false,"blueBadgeCarParkSpaces":null,"taxiRanksOutsideStation":false,"mainBusInterchange":null,"pierInterchange":null,"nationalRailInterchange":null,"airportInterchange":null,"emiratesAirLineInterchange":null,"lat":51.399483000000004,"lon":-0.0603105},{"id":"940GZZCRKGH","name":"King Henry's Drive","fareZones":"Trams fare zone","hubCode":null,"wifi":false,"blueBadgeCarParking":false,"blueBadgeCarParkSpaces":null,"taxiRanksOutsideStation":false,"mainBusInterchange":null,"pierInterchange":null,"nationalRailInterchange":null,"airportInterchange":null,"emiratesAirLineInterchange":null,"lat":51.345591999999996,"lon":-0.02047},{"id":"940GZZCRLEB","name":"Lebanon Road","fareZones":"Trams fare zone","hubCode":null,"wifi":false,"blueBadgeCarParking":false,"blueBadgeCarParkSpaces":null,"taxiRanksOutsideStation":false,"mainBusInterchange":null,"pierInterchange":null,"nationalRailInterchange":null,"airportInterchange":null,"emiratesAirLineInterchange":null,"lat":51.375199,"lon":-0.08480566666666667},{"id":"940GZZCRLOY","name":"Lloyd Park","fareZones":"Trams fare zone","hubCode":null,"wifi":false,"blueBadgeCarParking":false,"blueBadgeCarParkSpaces":null,"taxiRanksOutsideStation":false,"mainBusInterchange":null,"pierInterchange":null,"nationalRailInterchange":null,"airportInterchange":null,"emiratesAirLineInterchange":null,"lat":51.364255333333325,"lon":-0.08209766666666667},{"id":"940GZZCRMCH","name":"Mitcham","fareZones":"Trams fare zone","hubCode":null,"wifi":false,"blueBadgeCarParking":false,"blueBadgeCarParkSpaces":null,"taxiRanksOutsideStation":false,"mainBusInterchange":null,"pierInterchange":null,"nationalRailInterchange":null,"airportInterchange":null,"emiratesAirLineInterchange":null,"lat":51.397641666666665,"lon":-0.17261466666666667},{"id":"940GZZCRMDN","name":"Morden Road","fareZones":"Trams fare zone","hubCode":null,"wifi":false,"blueBadgeCarParking":false,"blueBadgeCarParkSpaces":null,"taxiRanksOutsideStation":false,"mainBusInterchange":null,"pierInterchange":null,"nationalRailInterchange":null,"airportInterchange":null,"emiratesAirLineInterchange":null,"lat":51.40892333333333,"lon":-0.19247766666666666},{"id":"940GZZCRMTP","name":"Merton Park","fareZones":"Trams fare zone","hubCode":null,"wifi":false,"blueBadgeCarParking":false,"blueBadgeCarParkSpaces":null,"taxiRanksOutsideStation":false,"mainBusInterchange":null,"pierInterchange":null,"nationalRailInterchange":null,"airportInterchange":null,"emiratesAirLineInterchange":null,"lat":51.41434666666667,"lon":-0.201688},{"id":"940GZZCRNWA","name":"New Addington","fareZones":"Trams fare zone","hubCode":null,"wifi":false,"blueBadgeCarParking":false,"blueBadgeCarParkSpaces":null,"taxiRanksOutsideStation":false,"mainBusInterchange":null,"pierInterchange":null,"nationalRailInterchange":null,"airportInterchange":null,"emiratesAirLineInterchange":null,"lat":51.342797,"lon":-0.017542000000000002},{"id":"940GZZCRPHI","name":"Phipps Bridge","fareZones":"Trams fare zone","hubCode":null,"wifi":false,"blueBadgeCarParking":false,"blueBadgeCarParkSpaces":null,"taxiRanksOutsideStation":false,"mainBusInterchange":null,"pierInterchange":null,"nationalRailInterchange":null,"airportInterchange":null,"emiratesAirLineInterchange":null,"lat":51.40386166666667,"lon":-0.18206666666666668},{"id":"940GZZCRRVC","name":"Reeves Corner","fareZones":"Trams fare zone","hubCode":null,"wifi":false,"blueBadgeCarParking":false,"blueBadgeCarParkSpaces":null,"taxiRanksOutsideStation":false,"mainBusInterchange":null,"pierInterchange":null,"nationalRailInterchange":null,"airportInterchange":null,"emiratesAirLineInterchange":null,"lat":51.374807000000004,"lon":-0.1062415},{"id":"940GZZCRSAN","name":"Sandilands","fareZones":"Trams fare zone","hubCode":null,"wifi":false,"blueBadgeCarParking":false,"blueBadgeCarParkSpaces":null,"taxiRanksOutsideStation":false,"mainBusInterchange":null,"pierInterchange":null,"nationalRailInterchange":null,"airportInterchange":null,"emiratesAirLineInterchange":null,"lat":51.37510866666667,"lon":-0.07872233333333334},{"id":"940GZZCRTPA","name":"Therapia Lane","fareZones":"Trams fare zone","hubCode":null,"wifi":false,"blueBadgeCarParking":false,"blueBadgeCarParkSpaces":null,"taxiRanksOutsideStation":false,"mainBusInterchange":null,"pierInterchange":null,"nationalRailInterchange":null,"airportInterchange":null,"emiratesAirLineInterchange":null,"lat":51.3856425,"lon":-0.129281},{"id":"940GZZCRWAD","name":"Waddon Marsh","fareZones":"Trams fare zone","hubCode":null,"wifi":false,"blueBadgeCarParking":false,"blueBadgeCarParkSpaces":null,"taxiRanksOutsideStation":false,"mainBusInterchange":null,"pierInterchange":null,"nationalRailInterchange":null,"airportInterchange":null,"emiratesAirLineInterchange":null,"lat":51.37741925,"lon":-0.11864175},{"id":"940GZZCRWAN","name":"Wandle Park","fareZones":"Trams fare zone","hubCode":null,"wifi":false,"blueBadgeCarParking":false,"blueBadgeCarParkSpaces":null,"taxiRanksOutsideStation":false,"mainBusInterchange":null,"pierInterchange":null,"nationalRailInterchange":null,"airportInterchange":null,"emiratesAirLineInterchange":null,"lat":51.3732825,"lon":-0.1131935},{"id":"940GZZCRWEL","name":"Wellesley Road","fareZones":"Trams fare zone","hubCode":null,"wifi":false,"blueBadgeCarParking":false,"blueBadgeCarParkSpaces":null,"taxiRanksOutsideStation":false,"mainBusInterchange":null,"pierInterchange":null,"nationalRailInterchange":null,"airportInterchange":null,"emiratesAirLineInterchange":null,"lat":51.375457,"lon":-0.097478},{"id":"940GZZCRWOD","name":"Woodside","fareZones":"Trams fare zone","hubCode":null,"wifi":false,"blueBadgeCarParking":false,"blueBadgeCarParkSpaces":null,"taxiRanksOutsideStation":false,"mainBusInterchange":null,"pierInterchange":null,"nationalRailInterchange":null,"airportInterchange":null,"emiratesAirLineInterchange":null,"lat":51.3874265,"lon":-0.064708},{"id":"940GZZDLABR","name":"Abbey Road","fareZones":"2|3","hubCode":null,"wifi":false,"blueBadgeCarParking":false,"blueBadgeCarParkSpaces":null,"taxiRanksOutsideStation":false,"mainBusInterchange":"Full","pierInterchange":null,"nationalRailInterchange":null,"airportInterchange":null,"emiratesAirLineInterchange":null,"lat":51.53240985714286,"lon":0.0037701428571428578},{"id":"940GZZDLALL","name":"All Saints","fareZones":"2","hubCode":null,"wifi":false,"blueBadgeCarParking":false,"blueBadgeCarParkSpaces":null,"taxiRanksOutsideStation":false,"mainBusInterchange":null,"pierInterchange":null,"nationalRailInterchange":null,"airportInterchange":null,"emiratesAirLineInterchange":null,"lat":51.511110599999995,"lon":-0.013087199999999998},{"id":"940GZZDLBEC","name":"Beckton","fareZones":"3","hubCode":null,"wifi":false,"blueBadgeCarParking":false,"blueBadgeCarParkSpaces":null,"taxiRanksOutsideStation":false,"mainBusInterchange":null,"pierInterchange":null,"nationalRailInterchange":null,"airportInterchange":null,"emiratesAirLineInterchange":null,"lat":51.514414599999995,"lon":0.0609016},{"id":"940GZZDLBLA","name":"Blackwall","fareZones":"2","hubCode":null,"wifi":false,"blueBadgeCarParking":false,"blueBadgeCarParkSpaces":null,"taxiRanksOutsideStation":false,"mainBusInterchange":null,"pierInterchange":null,"nationalRailInterchange":null,"airportInterchange":null,"emiratesAirLineInterchange":null,"lat":51.508068,"lon":-0.006775666666666666},{"id":"940GZZDLBOW","name":"Bow Church","fareZones":"2","hubCode":null,"wifi":false,"blueBadgeCarParking":false,"blueBadgeCarParkSpaces":null,"taxiRanksOutsideStation":false,"mainBusInterchange":null,"pierInterchange":null,"nationalRailInterchange":null,"airportInterchange":null,"emiratesAirLineInterchange":null,"lat":51.5277456,"lon":-0.020871999999999998},{"id":"940GZZDLBPK","name":"Beckton Park","fareZones":"3","hubCode":null,"wifi":false,"blueBadgeCarParking":false,"blueBadgeCarParkSpaces":null,"taxiRanksOutsideStation":false,"mainBusInterchange":null,"pierInterchange":null,"nationalRailInterchange":null,"airportInterchange":null,"emiratesAirLineInterchange":null,"lat":51.5089756,"lon":0.0549724},{"id":"940GZZDLCLA","name":"Crossharbour","fareZones":"2","hubCode":null,"wifi":false,"blueBadgeCarParking":false,"blueBadgeCarParkSpaces":null,"taxiRanksOutsideStation":false,"mainBusInterchange":null,"pierInterchange":null,"nationalRailInterchange":null,"airportInterchange":null,"emiratesAirLineInterchange":null,"lat":51.49565142857143,"lon":-0.014424428571428572},{"id":"HUBCUS","name":"Custom House for ExCel","fareZones":"3","hubCode":"HUBCUS","wifi":false,"blueBadgeCarParking":false,"blueBadgeCarParkSpaces":null,"taxiRanksOutsideStation":false,"mainBusInterchange":null,"pierInterchange":null,"nationalRailInterchange":null,"airportInterchange":null,"emiratesAirLineInterchange":null,"lat":51.50969442857143,"lon":0.0267165},{"id":"940GZZDLCYP","name":"Cyprus","fareZones":"3","hubCode":null,"wifi":false,"blueBadgeCarParking":false,"blueBadgeCarParkSpaces":null,"taxiRanksOutsideStation":false,"mainBusInterchange":null,"pierInterchange":null,"nationalRailInterchange":null,"airportInterchange":null,"emiratesAirLineInterchange":null,"lat":51.50850683333334,"lon":0.06403450000000001},{"id":"940GZZDLDEP","name":"Deptford Bridge","fareZones":"2|3","hubCode":null,"wifi":false,"blueBadgeCarParking":false,"blueBadgeCarParkSpaces":null,"taxiRanksOutsideStation":false,"mainBusInterchange":null,"pierInterchange":null,"nationalRailInterchange":null,"airportInterchange":null,"emiratesAirLineInterchange":null,"lat":51.474503,"lon":-0.022677625},{"id":"940GZZDLDEV","name":"Devons Road","fareZones":"2","hubCode":null,"wifi":false,"blueBadgeCarParking":false,"blueBadgeCarParkSpaces":null,"taxiRanksOutsideStation":false,"mainBusInterchange":null,"pierInterchange":null,"nationalRailInterchange":null,"airportInterchange":null,"emiratesAirLineInterchange":null,"lat":51.522630833333324,"lon":-0.017434333333333333},{"id":"940GZZDLEIN","name":"East India","fareZones":"2|3","hubCode":null,"wifi":false,"blueBadgeCarParking":false,"blueBadgeCarParkSpaces":null,"taxiRanksOutsideStation":false,"mainBusInterchange":null,"pierInterchange":null,"nationalRailInterchange":null,"airportInterchange":null,"emiratesAirLineInterchange":null,"lat":51.50951033333333,"lon":-0.002139666666666667},{"id":"940GZZDLELV","name":"Elverson Road","fareZones":"2|3","hubCode":null,"wifi":false,"blueBadgeCarParking":false,"blueBadgeCarParkSpaces":null,"taxiRanksOutsideStation":false,"mainBusInterchange":null,"pierInterchange":null,"nationalRailInterchange":null,"airportInterchange":null,"emiratesAirLineInterchange":null,"lat":51.46865516666666,"lon":-0.016804166666666665},{"id":"940GZZDLGAL","name":"Gallions Reach","fareZones":"3","hubCode":null,"wifi":false,"blueBadgeCarParking":false,"blueBadgeCarParkSpaces":null,"taxiRanksOutsideStation":false,"mainBusInterchange":null,"pierInterchange":null,"nationalRailInterchange":null,"airportInterchange":null,"emiratesAirLineInterchange":null,"lat":51.508870200000004,"lon":0.0719956},{"id":"940GZZDLHEQ","name":"Heron Quays","fareZones":"2","hubCode":null,"wifi":false,"blueBadgeCarParking":false,"blueBadgeCarParkSpaces":null,"taxiRanksOutsideStation":false,"mainBusInterchange":null,"pierInterchange":null,"nationalRailInterchange":null,"airportInterchange":null,"emiratesAirLineInterchange":null,"lat":51.503189,"lon":-0.0213366},{"id":"940GZZDLISL","name":"Island Gardens","fareZones":"2","hubCode":null,"wifi":false,"blueBadgeCarParking":false,"blueBadgeCarParkSpaces":null,"taxiRanksOutsideStation":false,"mainBusInterchange":null,"pierInterchange":null,"nationalRailInterchange":null,"airportInterchange":null,"emiratesAirLineInterchange":null,"lat":51.487916,"lon":-0.010343250000000002},{"id":"940GZZDLKGV","name":"King George V","fareZones":"3","hubCode":null,"wifi":false,"blueBadgeCarParking":false,"blueBadgeCarParkSpaces":null,"taxiRanksOutsideStation":false,"mainBusInterchange":null,"pierInterchange":null,"nationalRailInterchange":null,"airportInterchange":null,"emiratesAirLineInterchange":null,"lat":51.501966,"lon":0.062334},{"id":"940GZZDLLDP","name":"Langdon Park","fareZones":"2","hubCode":null,"wifi":false,"blueBadgeCarParking":false,"blueBadgeCarParkSpaces":null,"taxiRanksOutsideStation":false,"mainBusInterchange":null,"pierInterchange":null,"nationalRailInterchange":null,"airportInterchange":null,"emiratesAirLineInterchange":null,"lat":51.51507157142857,"lon":-0.014255285714285715},{"id":"940GZZDLMUD","name":"Mudchute","fareZones":"2","hubCode":null,"wifi":false,"blueBadgeCarParking":false,"blueBadgeCarParkSpaces":null,"taxiRanksOutsideStation":false,"mainBusInterchange":null,"pierInterchange":null,"nationalRailInterchange":null,"airportInterchange":null,"emiratesAirLineInterchange":null,"lat":51.49101971428571,"lon":-0.014847999999999998},{"id":"940GZZDLPDK","name":"Pontoon Dock","fareZones":"3","hubCode":null,"wifi":false,"blueBadgeCarParking":false,"blueBadgeCarParkSpaces":null,"taxiRanksOutsideStation":false,"mainBusInterchange":null,"pierInterchange":null,"nationalRailInterchange":null,"airportInterchange":null,"emiratesAirLineInterchange":null,"lat":51.502348250000004,"lon":0.03336425},{"id":"940GZZDLPOP","name":"Poplar","fareZones":"2","hubCode":null,"wifi":false,"blueBadgeCarParking":false,"blueBadgeCarParkSpaces":null,"taxiRanksOutsideStation":false,"mainBusInterchange":null,"pierInterchange":null,"nationalRailInterchange":null,"airportInterchange":null,"emiratesAirLineInterchange":null,"lat":51.507710374999995,"lon":-0.017462875},{"id":"940GZZDLPRE","name":"Prince Regent","fareZones":"3","hubCode":null,"wifi":false,"blueBadgeCarParking":false,"blueBadgeCarParkSpaces":null,"taxiRanksOutsideStation":false,"mainBusInterchange":null,"pierInterchange":null,"nationalRailInterchange":null,"airportInterchange":null,"emiratesAirLineInterchange":null,"lat":51.509354599999995,"lon":0.0337532},{"id":"940GZZDLPUD","name":"Pudding Mill Lane","fareZones":"2|3","hubCode":null,"wifi":false,"blueBadgeCarParking":false,"blueBadgeCarParkSpaces":null,"taxiRanksOutsideStation":false,"mainBusInterchange":null,"pierInterchange":null,"nationalRailInterchange":null,"airportInterchange":null,"emiratesAirLineInterchange":null,"lat":51.53402225,"lon":-0.013171249999999999},{"id":"940GZZDLRAL","name":"Royal Albert","fareZones":"3","hubCode":null,"wifi":false,"blueBadgeCarParking":false,"blueBadgeCarParkSpaces":null,"taxiRanksOutsideStation":false,"mainBusInterchange":null,"pierInterchange":null,"nationalRailInterchange":null,"airportInterchange":null,"emiratesAirLineInterchange":null,"lat":51.508292,"lon":0.046027200000000004},{"id":"940GZZDLRVC","name":"Royal Victoria","fareZones":"3","hubCode":"HUBRVC","wifi":false,"blueBadgeCarParking":false,"blueBadgeCarParkSpaces":null,"taxiRanksOutsideStation":false,"mainBusInterchange":null,"pierInterchange":null,"nationalRailInterchange":null,"airportInterchange":null,"emiratesAirLineInterchange":"Full","lat":51.5091865,"lon":0.0184515},{"id":"940GZZDLSHS","name":"Stratford High Street","fareZones":"2|3","hubCode":null,"wifi":false,"blueBadgeCarParking":false,"blueBadgeCarParkSpaces":null,"taxiRanksOutsideStation":false,"mainBusInterchange":"Full","pierInterchange":null,"nationalRailInterchange":null,"airportInterchange":null,"emiratesAirLineInterchange":null,"lat":51.537916833333334,"lon":-0.00038149999999999995},{"id":"940GZZDLSIT","name":"Stratford International","fareZones":"2|3","hubCode":null,"wifi":false,"blueBadgeCarParking":false,"blueBadgeCarParkSpaces":null,"taxiRanksOutsideStation":false,"mainBusInterchange":"Full","pierInterchange":null,"nationalRailInterchange":"Partial","airportInterchange":null,"emiratesAirLineInterchange":null,"lat":51.54572149999999,"lon":-0.009147},{"id":"940GZZDLSOQ","name":"South Quay","fareZones":"2","hubCode":null,"wifi":false,"blueBadgeCarParking":false,"blueBadgeCarParkSpaces":null,"taxiRanksOutsideStation":false,"mainBusInterchange":null,"pierInterchange":null,"nationalRailInterchange":null,"airportInterchange":null,"emiratesAirLineInterchange":null,"lat":51.50005783333333,"lon":-0.0162},{"id":"940GZZDLSTL","name":"Star Lane","fareZones":"2|3","hubCode":null,"wifi":false,"blueBadgeCarParking":false,"blueBadgeCarParkSpaces":null,"taxiRanksOutsideStation":false,"mainBusInterchange":"Full","pierInterchange":null,"nationalRailInterchange":"Partial","airportInterchange":null,"emiratesAirLineInterchange":null,"lat":51.520756857142864,"lon":0.004282},{"id":"940GZZDLWFE","name":"Westferry","fareZones":"2","hubCode":null,"wifi":false,"blueBadgeCarParking":false,"blueBadgeCarParkSpaces":null,"taxiRanksOutsideStation":false,"mainBusInterchange":null,"pierInterchange":"Full","nationalRailInterchange":null,"airportInterchange":null,"emiratesAirLineInterchange":null,"lat":51.509218,"lon":-0.0263672},{"id":"940GZZDLWIQ","name":"West India Quay","fareZones":"2","hubCode":null,"wifi":false,"blueBadgeCarParking":false,"blueBadgeCarParkSpaces":null,"taxiRanksOutsideStation":false,"mainBusInterchange":null,"pierInterchange":null,"nationalRailInterchange":null,"airportInterchange":null,"emiratesAirLineInterchange":null,"lat":51.50709500000001,"lon":-0.02043475},{"id":"940GZZDLWSV","name":"West Silvertown","fareZones":"3","hubCode":null,"wifi":false,"blueBadgeCarParking":false,"blueBadgeCarParkSpaces":null,"taxiRanksOutsideStation":false,"mainBusInterchange":null,"pierInterchange":null,"nationalRailInterchange":null,"airportInterchange":null,"emiratesAirLineInterchange":null,"lat":51.5028238,"lon":0.022836999999999996},{"id":"940GZZLUACT","name":"Acton Town","fareZones":"3","hubCode":null,"wifi":true,"blueBadgeCarParking":false,"blueBadgeCarParkSpaces":null,"taxiRanksOutsideStation":false,"mainBusInterchange":null,"pierInterchange":null,"nationalRailInterchange":null,"airportInterchange":null,"emiratesAirLineInterchange":null,"lat":51.50296555555556,"lon":-0.2802088888888889},{"id":"940GZZLUACY","name":"Archway","fareZones":"2|3","hubCode":null,"wifi":true,"blueBadgeCarParking":false,"blueBadgeCarParkSpaces":null,"taxiRanksOutsideStation":false,"mainBusInterchange":null,"pierInterchange":null,"nationalRailInterchange":null,"airportInterchange":null,"emiratesAirLineInterchange":null,"lat":51.56517225,"lon":-0.134901875},{"id":"940GZZLUADE","name":"Aldgate East","fareZones":"1","hubCode":null,"wifi":true,"blueBadgeCarParking":false,"blueBadgeCarParkSpaces":null,"taxiRanksOutsideStation":false,"mainBusInterchange":null,"pierInterchange":null,"nationalRailInterchange":null,"airportInterchange":null,"emiratesAirLineInterchange":null,"lat":51.51545708333333,"lon":-0.07114325},{"id":"940GZZLUAGL","name":"Angel","fareZones":"1","hubCode":null,"wifi":true,"blueBadgeCarParking":false,"blueBadgeCarParkSpaces":null,"taxiRanksOutsideStation":false,"mainBusInterchange":null,"pierInterchange":null,"nationalRailInterchange":null,"airportInterchange":null,"emiratesAirLineInterchange":null,"lat":51.532290374999995,"lon":-0.105941},{"id":"940GZZLUALD","name":"Aldgate","fareZones":"1","hubCode":null,"wifi":true,"blueBadgeCarParking":false,"blueBadgeCarParkSpaces":null,"taxiRanksOutsideStation":false,"mainBusInterchange":null,"pierInterchange":null,"nationalRailInterchange":null,"airportInterchange":null,"emiratesAirLineInterchange":null,"lat":51.51412125,"lon":-0.075524625},{"id":"940GZZLUALP","name":"Alperton","fareZones":"4","hubCode":null,"wifi":true,"blueBadgeCarParking":false,"blueBadgeCarParkSpaces":null,"taxiRanksOutsideStation":false,"mainBusInterchange":null,"pierInterchange":null,"nationalRailInterchange":null,"airportInterchange":null,"emiratesAirLineInterchange":null,"lat":51.540664666666665,"lon":-0.29939200000000005},{"id":"940GZZLUASG","name":"Arnos Grove","fareZones":"4","hubCode":null,"wifi":true,"blueBadgeCarParking":false,"blueBadgeCarParkSpaces":null,"taxiRanksOutsideStation":false,"mainBusInterchange":null,"pierInterchange":null,"nationalRailInterchange":null,"airportInterchange":null,"emiratesAirLineInterchange":null,"lat":51.61622918181819,"lon":-0.1334061818181818},{"id":"940GZZLUASL","name":"Arsenal","fareZones":"2","hubCode":null,"wifi":true,"blueBadgeCarParking":false,"blueBadgeCarParkSpaces":null,"taxiRanksOutsideStation":false,"mainBusInterchange":null,"pierInterchange":null,"nationalRailInterchange":null,"airportInterchange":null,"emiratesAirLineInterchange":null,"lat":51.558435599999996,"lon":-0.1063096},{"id":"940GZZLUBBB","name":"Bromley-by-Bow","fareZones":"2|3","hubCode":null,"wifi":true,"blueBadgeCarParking":false,"blueBadgeCarParkSpaces":null,"taxiRanksOutsideStation":false,"mainBusInterchange":null,"pierInterchange":null,"nationalRailInterchange":null,"airportInterchange":null,"emiratesAirLineInterchange":null,"lat":51.52452455555555,"lon":-0.011571111111111112},{"id":"940GZZLUBBN","name":"Barbican","fareZones":"1","hubCode":null,"wifi":true,"blueBadgeCarParking":false,"blueBadgeCarParkSpaces":null,"taxiRanksOutsideStation":false,"mainBusInterchange":null,"pierInterchange":null,"nationalRailInterchange":null,"airportInterchange":null,"emiratesAirLineInterchange":null,"lat":51.52004311111111,"lon":-0.09838544444444446},{"id":"940GZZLUBDS","name":"Bounds Green","fareZones":"3|4","hubCode":null,"wifi":true,"blueBadgeCarParking":false,"blueBadgeCarParkSpaces":null,"taxiRanksOutsideStation":false,"mainBusInterchange":null,"pierInterchange":null,"nationalRailInterchange":null,"airportInterchange":null,"emiratesAirLineInterchange":null,"lat":51.607101375,"lon":-0.12445225000000001},{"id":"940GZZLUBEC","name":"Becontree","fareZones":"5","hubCode":null,"wifi":true,"blueBadgeCarParking":false,"blueBadgeCarParkSpaces":null,"taxiRanksOutsideStation":false,"mainBusInterchange":null,"pierInterchange":null,"nationalRailInterchange":null,"airportInterchange":null,"emiratesAirLineInterchange":null,"lat":51.54029083333333,"lon":0.12727133333333332},{"id":"940GZZLUBKE","name":"Barkingside","fareZones":"4","hubCode":null,"wifi":true,"blueBadgeCarParking":true,"blueBadgeCarParkSpaces":2,"taxiRanksOutsideStation":false,"mainBusInterchange":null,"pierInterchange":null,"nationalRailInterchange":null,"airportInterchange":null,"emiratesAirLineInterchange":null,"lat":51.58592214285715,"lon":0.08807785714285714},{"id":"940GZZLUBKH","name":"Buckhurst Hill","fareZones":"5","hubCode":null,"wifi":true,"blueBadgeCarParking":true,"blueBadgeCarParkSpaces":null,"taxiRanksOutsideStation":false,"mainBusInterchange":null,"pierInterchange":null,"nationalRailInterchange":null,"airportInterchange":null,"emiratesAirLineInterchange":null,"lat":51.62618985714285,"lon":0.04672},{"id":"940GZZLUBLG","name":"Bethnal Green","fareZones":"2","hubCode":null,"wifi":true,"blueBadgeCarParking":false,"blueBadgeCarParkSpaces":null,"taxiRanksOutsideStation":false,"mainBusInterchange":null,"pierInterchange":null,"nationalRailInterchange":null,"airportInterchange":null,"emiratesAirLineInterchange":null,"lat":51.52735058333334,"lon":-0.055303500000000005},{"id":"940GZZLUBMY","name":"Bermondsey","fareZones":"2","hubCode":null,"wifi":true,"blueBadgeCarParking":false,"blueBadgeCarParkSpaces":null,"taxiRanksOutsideStation":false,"mainBusInterchange":null,"pierInterchange":null,"nationalRailInterchange":null,"airportInterchange":null,"emiratesAirLineInterchange":null,"lat":51.49793185714286,"lon":-0.06390728571428571},{"id":"HUBBDS","name":"Bond Street","fareZones":"1","hubCode":"HUBBDS","wifi":false,"blueBadgeCarParking":false,"blueBadgeCarParkSpaces":null,"taxiRanksOutsideStation":false,"mainBusInterchange":null,"pierInterchange":null,"nationalRailInterchange":null,"airportInterchange":null,"emiratesAirLineInterchange":null,"lat":51.51405814285715,"lon":-0.14856589285714286},{"id":"940GZZLUBOR","name":"Borough","fareZones":"1","hubCode":null,"wifi":true,"blueBadgeCarParking":false,"blueBadgeCarParkSpaces":null,"taxiRanksOutsideStation":false,"mainBusInterchange":null,"pierInterchange":null,"nationalRailInterchange":null,"airportInterchange":null,"emiratesAirLineInterchange":null,"lat":51.50096642857143,"lon":-0.09331371428571429},{"id":"940GZZLUBOS","name":"Boston Manor","fareZones":"4","hubCode":null,"wifi":true,"blueBadgeCarParking":false,"blueBadgeCarParkSpaces":null,"taxiRanksOutsideStation":false,"mainBusInterchange":null,"pierInterchange":null,"nationalRailInterchange":null,"airportInterchange":null,"emiratesAirLineInterchange":null,"lat":51.495736,"lon":-0.3247195},{"id":"940GZZLUBSC","name":"Barons Court","fareZones":"2","hubCode":null,"wifi":true,"blueBadgeCarParking":false,"blueBadgeCarParkSpaces":null,"taxiRanksOutsideStation":false,"mainBusInterchange":null,"pierInterchange":null,"nationalRailInterchange":null,"airportInterchange":null,"emiratesAirLineInterchange":null,"lat":51.490375,"lon":-0.21375762499999998},{"id":"940GZZLUBST","name":"Baker Street","fareZones":"1","hubCode":null,"wifi":true,"blueBadgeCarParking":false,"blueBadgeCarParkSpaces":null,"taxiRanksOutsideStation":false,"mainBusInterchange":null,"pierInterchange":null,"nationalRailInterchange":null,"airportInterchange":null,"emiratesAirLineInterchange":null,"lat":51.52272590000001,"lon":-0.15720874999999998},{"id":"940GZZLUBTK","name":"Burnt Oak","fareZones":"4","hubCode":null,"wifi":true,"blueBadgeCarParking":false,"blueBadgeCarParkSpaces":null,"taxiRanksOutsideStation":false,"mainBusInterchange":null,"pierInterchange":null,"nationalRailInterchange":null,"airportInterchange":null,"emiratesAirLineInterchange":null,"lat":51.60271716666667,"lon":-0.26399716666666667},{"id":"940GZZLUBTX","name":"Brent Cross","fareZones":"3","hubCode":null,"wifi":true,"blueBadgeCarParking":false,"blueBadgeCarParkSpaces":null,"taxiRanksOutsideStation":false,"mainBusInterchange":null,"pierInterchange":null,"nationalRailInterchange":null,"airportInterchange":null,"emiratesAirLineInterchange":null,"lat":51.576728571428575,"lon":-0.2134277142857143},{"id":"940GZZLUBWR","name":"Bow Road","fareZones":"2","hubCode":null,"wifi":false,"blueBadgeCarParking":false,"blueBadgeCarParkSpaces":null,"taxiRanksOutsideStation":false,"mainBusInterchange":null,"pierInterchange":null,"nationalRailInterchange":null,"airportInterchange":null,"emiratesAirLineInterchange":null,"lat":51.527011833333326,"lon":-0.024992666666666667},{"id":"940GZZLUBWT","name":"Bayswater","fareZones":"1","hubCode":null,"wifi":true,"blueBadgeCarParking":false,"blueBadgeCarParkSpaces":null,"taxiRanksOutsideStation":false,"mainBusInterchange":null,"pierInterchange":null,"nationalRailInterchange":null,"airportInterchange":null,"emiratesAirLineInterchange":null,"lat":51.51237716666666,"lon":-0.1878695},{"id":"940GZZLUBZP","name":"Belsize Park","fareZones":"2","hubCode":null,"wifi":true,"blueBadgeCarParking":false,"blueBadgeCarParkSpaces":null,"taxiRanksOutsideStation":false,"mainBusInterchange":null,"pierInterchange":null,"nationalRailInterchange":null,"airportInterchange":null,"emiratesAirLineInterchange":null,"lat":51.55041542857142,"lon":-0.16463314285714287},{"id":"940GZZLUCAR","name":"Caledonian Road","fareZones":"2","hubCode":null,"wifi":true,"blueBadgeCarParking":false,"blueBadgeCarParkSpaces":null,"taxiRanksOutsideStation":false,"mainBusInterchange":null,"pierInterchange":null,"nationalRailInterchange":null,"airportInterchange":null,"emiratesAirLineInterchange":null,"lat":51.548634166666666,"lon":-0.11824583333333333},{"id":"940GZZLUCFM","name":"Chalk Farm","fareZones":"2","hubCode":null,"wifi":true,"blueBadgeCarParking":false,"blueBadgeCarParkSpaces":null,"taxiRanksOutsideStation":false,"mainBusInterchange":null,"pierInterchange":null,"nationalRailInterchange":null,"airportInterchange":null,"emiratesAirLineInterchange":null,"lat":51.54417314285714,"lon":-0.15364328571428573},{"id":"940GZZLUCGN","name":"Covent Garden","fareZones":"1","hubCode":null,"wifi":true,"blueBadgeCarParking":false,"blueBadgeCarParkSpaces":null,"taxiRanksOutsideStation":false,"mainBusInterchange":null,"pierInterchange":null,"nationalRailInterchange":null,"airportInterchange":null,"emiratesAirLineInterchange":null,"lat":51.51306475,"lon":-0.12416475},{"id":"940GZZLUCHL","name":"Chancery Lane","fareZones":"1","hubCode":null,"wifi":true,"blueBadgeCarParking":false,"blueBadgeCarParkSpaces":null,"taxiRanksOutsideStation":false,"mainBusInterchange":null,"pierInterchange":null,"nationalRailInterchange":null,"airportInterchange":null,"emiratesAirLineInterchange":null,"lat":51.518185124999995,"lon":-0.1117045},{"id":"940GZZLUCKS","name":"Cockfosters","fareZones":"5","hubCode":null,"wifi":true,"blueBadgeCarParking":false,"blueBadgeCarParkSpaces":null,"taxiRanksOutsideStation":false,"mainBusInterchange":null,"pierInterchange":null,"nationalRailInterchange":null,"airportInterchange":null,"emiratesAirLineInterchange":null,"lat":51.651548555555564,"lon":-0.14952155555555555},{"id":"940GZZLUCND","name":"Colindale","fareZones":"4","hubCode":null,"wifi":true,"blueBadgeCarParking":false,"blueBadgeCarParkSpaces":null,"taxiRanksOutsideStation":false,"mainBusInterchange":null,"pierInterchange":null,"nationalRailInterchange":null,"airportInterchange":null,"emiratesAirLineInterchange":null,"lat":51.59540816666666,"lon":-0.24985733333333335},{"id":"940GZZLUCPC","name":"Clapham Common","fareZones":"2","hubCode":null,"wifi":true,"blueBadgeCarParking":false,"blueBadgeCarParkSpaces":null,"taxiRanksOutsideStation":false,"mainBusInterchange":null,"pierInterchange":null,"nationalRailInterchange":null,"airportInterchange":null,"emiratesAirLineInterchange":null,"lat":51.4617973,"lon":-0.13809490000000002},{"id":"940GZZLUCPK","name":"Canons Park","fareZones":"5","hubCode":null,"wifi":true,"blueBadgeCarParking":false,"blueBadgeCarParkSpaces":null,"taxiRanksOutsideStation":false,"mainBusInterchange":null,"pierInterchange":null,"nationalRailInterchange":null,"airportInterchange":null,"emiratesAirLineInterchange":null,"lat":51.607731714285705,"lon":-0.29470428571428575},{"id":"940GZZLUCPN","name":"Clapham North","fareZones":"2","hubCode":null,"wifi":true,"blueBadgeCarParking":false,"blueBadgeCarParkSpaces":null,"taxiRanksOutsideStation":false,"mainBusInterchange":null,"pierInterchange":null,"nationalRailInterchange":null,"airportInterchange":null,"emiratesAirLineInterchange":null,"lat":51.46515828571428,"lon":-0.1297932857142857},{"id":"940GZZLUCPS","name":"Clapham South","fareZones":"2|3","hubCode":null,"wifi":true,"blueBadgeCarParking":false,"blueBadgeCarParkSpaces":null,"taxiRanksOutsideStation":false,"mainBusInterchange":null,"pierInterchange":null,"nationalRailInterchange":null,"airportInterchange":null,"emiratesAirLineInterchange":null,"lat":51.45279966666667,"lon":-0.14773916666666667},{"id":"940GZZLUCSD","name":"Colliers Wood","fareZones":"3","hubCode":null,"wifi":true,"blueBadgeCarParking":false,"blueBadgeCarParkSpaces":null,"taxiRanksOutsideStation":false,"mainBusInterchange":null,"pierInterchange":null,"nationalRailInterchange":null,"airportInterchange":null,"emiratesAirLineInterchange":null,"lat":51.418156857142854,"lon":-0.17801028571428573},{"id":"940GZZLUCSM","name":"Chesham","fareZones":"9","hubCode":null,"wifi":true,"blueBadgeCarParking":true,"blueBadgeCarParkSpaces":4,"taxiRanksOutsideStation":false,"mainBusInterchange":null,"pierInterchange":null,"nationalRailInterchange":null,"airportInterchange":null,"emiratesAirLineInterchange":null,"lat":51.70531433333334,"lon":-0.6110553333333333},{"id":"940GZZLUCTN","name":"Camden Town","fareZones":"2","hubCode":null,"wifi":true,"blueBadgeCarParking":false,"blueBadgeCarParkSpaces":null,"taxiRanksOutsideStation":false,"mainBusInterchange":null,"pierInterchange":null,"nationalRailInterchange":null,"airportInterchange":null,"emiratesAirLineInterchange":null,"lat":51.539325700000006,"lon":-0.14248869999999997},{"id":"940GZZLUCWL","name":"Chigwell","fareZones":"4","hubCode":null,"wifi":true,"blueBadgeCarParking":false,"blueBadgeCarParkSpaces":null,"taxiRanksOutsideStation":false,"mainBusInterchange":null,"pierInterchange":null,"nationalRailInterchange":null,"airportInterchange":null,"emiratesAirLineInterchange":null,"lat":51.6178036,"lon":0.07487380000000002},{"id":"940GZZLUCWP","name":"Chiswick Park","fareZones":"3","hubCode":null,"wifi":true,"blueBadgeCarParking":false,"blueBadgeCarParkSpaces":null,"taxiRanksOutsideStation":false,"mainBusInterchange":null,"pierInterchange":null,"nationalRailInterchange":null,"airportInterchange":null,"emiratesAirLineInterchange":null,"lat":51.494418124999996,"lon":-0.267852375},{"id":"940GZZLUCXY","name":"Croxley","fareZones":"7","hubCode":null,"wifi":true,"blueBadgeCarParking":false,"blueBadgeCarParkSpaces":null,"taxiRanksOutsideStation":false,"mainBusInterchange":null,"pierInterchange":null,"nationalRailInterchange":null,"airportInterchange":null,"emiratesAirLineInterchange":null,"lat":51.64710985714286,"lon":-0.44140814285714286},{"id":"940GZZLUDBN","name":"Debden","fareZones":"6","hubCode":null,"wifi":true,"blueBadgeCarParking":true,"blueBadgeCarParkSpaces":3,"taxiRanksOutsideStation":true,"mainBusInterchange":null,"pierInterchange":null,"nationalRailInterchange":null,"airportInterchange":null,"emiratesAirLineInterchange":null,"lat":51.64533614285714,"lon":0.08398628571428571},{"id":"940GZZLUDGE","name":"Dagenham East","fareZones":"5","hubCode":null,"wifi":true,"blueBadgeCarParking":false,"blueBadgeCarParkSpaces":null,"taxiRanksOutsideStation":false,"mainBusInterchange":null,"pierInterchange":null,"nationalRailInterchange":null,"airportInterchange":null,"emiratesAirLineInterchange":null,"lat":51.544151666666664,"lon":0.1658315},{"id":"940GZZLUDGY","name":"Dagenham Heathway","fareZones":"5","hubCode":null,"wifi":true,"blueBadgeCarParking":false,"blueBadgeCarParkSpaces":null,"taxiRanksOutsideStation":false,"mainBusInterchange":null,"pierInterchange":null,"nationalRailInterchange":null,"airportInterchange":null,"emiratesAirLineInterchange":null,"lat":51.541682333333334,"lon":0.1472165},{"id":"940GZZLUDOH","name":"Dollis Hill","fareZones":"3","hubCode":null,"wifi":false,"blueBadgeCarParking":false,"blueBadgeCarParkSpaces":null,"taxiRanksOutsideStation":false,"mainBusInterchange":null,"pierInterchange":null,"nationalRailInterchange":null,"airportInterchange":null,"emiratesAirLineInterchange":null,"lat":51.55211214285714,"lon":-0.23888042857142858},{"id":"940GZZLUEAE","name":"Eastcote","fareZones":"5","hubCode":null,"wifi":false,"blueBadgeCarParking":false,"blueBadgeCarParkSpaces":null,"taxiRanksOutsideStation":false,"mainBusInterchange":null,"pierInterchange":null,"nationalRailInterchange":null,"airportInterchange":null,"emiratesAirLineInterchange":null,"lat":51.57649942857143,"lon":-0.39707442857142855},{"id":"940GZZLUEAN","name":"East Acton","fareZones":"2","hubCode":null,"wifi":true,"blueBadgeCarParking":false,"blueBadgeCarParkSpaces":null,"taxiRanksOutsideStation":false,"mainBusInterchange":null,"pierInterchange":null,"nationalRailInterchange":null,"airportInterchange":null,"emiratesAirLineInterchange":null,"lat":51.51665966666667,"lon":-0.24755649999999998},{"id":"940GZZLUECM","name":"Ealing Common","fareZones":"3","hubCode":null,"wifi":true,"blueBadgeCarParking":false,"blueBadgeCarParkSpaces":null,"taxiRanksOutsideStation":false,"mainBusInterchange":null,"pierInterchange":null,"nationalRailInterchange":null,"airportInterchange":null,"emiratesAirLineInterchange":null,"lat":51.51016983333333,"lon":-0.28813916666666667},{"id":"940GZZLUECT","name":"Earl's Court","fareZones":"1|2","hubCode":null,"wifi":true,"blueBadgeCarParking":false,"blueBadgeCarParkSpaces":null,"taxiRanksOutsideStation":false,"mainBusInterchange":null,"pierInterchange":null,"nationalRailInterchange":null,"airportInterchange":null,"emiratesAirLineInterchange":null,"lat":51.491561785714296,"lon":-0.1940135},{"id":"940GZZLUEFY","name":"East Finchley","fareZones":"3","hubCode":null,"wifi":true,"blueBadgeCarParking":false,"blueBadgeCarParkSpaces":null,"taxiRanksOutsideStation":false,"mainBusInterchange":null,"pierInterchange":null,"nationalRailInterchange":null,"airportInterchange":null,"emiratesAirLineInterchange":null,"lat":51.587044285714285,"lon":-0.164642},{"id":"940GZZLUEGW","name":"Edgware","fareZones":"5","hubCode":null,"wifi":true,"blueBadgeCarParking":false,"blueBadgeCarParkSpaces":null,"taxiRanksOutsideStation":true,"mainBusInterchange":null,"pierInterchange":null,"nationalRailInterchange":null,"airportInterchange":null,"emiratesAirLineInterchange":null,"lat":51.61365675,"lon":-0.27537725},{"id":"940GZZLUEHM","name":"East Ham","fareZones":"3|4","hubCode":null,"wifi":true,"blueBadgeCarParking":false,"blueBadgeCarParkSpaces":null,"taxiRanksOutsideStation":false,"mainBusInterchange":null,"pierInterchange":null,"nationalRailInterchange":null,"airportInterchange":null,"emiratesAirLineInterchange":null,"lat":51.53923557142856,"lon":0.05154457142857143},{"id":"940GZZLUEMB","name":"Embankment","fareZones":"1","hubCode":null,"wifi":true,"blueBadgeCarParking":false,"blueBadgeCarParkSpaces":null,"taxiRanksOutsideStation":false,"mainBusInterchange":null,"pierInterchange":null,"nationalRailInterchange":null,"airportInterchange":null,"emiratesAirLineInterchange":null,"lat":51.50708357142857,"lon":-0.1224137857142857},{"id":"940GZZLUEPG","name":"Epping","fareZones":"6","hubCode":null,"wifi":true,"blueBadgeCarParking":true,"blueBadgeCarParkSpaces":6,"taxiRanksOutsideStation":false,"mainBusInterchange":null,"pierInterchange":null,"nationalRailInterchange":null,"airportInterchange":null,"emiratesAirLineInterchange":null,"lat":51.693663833333325,"lon":0.11383166666666666},{"id":"940GZZLUEPK","name":"Elm Park","fareZones":"6","hubCode":null,"wifi":true,"blueBadgeCarParking":false,"blueBadgeCarParkSpaces":null,"taxiRanksOutsideStation":true,"mainBusInterchange":null,"pierInterchange":null,"nationalRailInterchange":null,"airportInterchange":null,"emiratesAirLineInterchange":null,"lat":51.54979466666666,"lon":0.19854499999999997},{"id":"940GZZLUEPY","name":"East Putney","fareZones":"2|3","hubCode":null,"wifi":true,"blueBadgeCarParking":false,"blueBadgeCarParkSpaces":null,"taxiRanksOutsideStation":false,"mainBusInterchange":null,"pierInterchange":null,"nationalRailInterchange":null,"airportInterchange":null,"emiratesAirLineInterchange":null,"lat":51.45956914285714,"lon":-0.21074700000000002},{"id":"940GZZLUERB","name":"Edgware Road","fareZones":"1","hubCode":null,"wifi":true,"blueBadgeCarParking":false,"blueBadgeCarParkSpaces":null,"taxiRanksOutsideStation":false,"mainBusInterchange":null,"pierInterchange":null,"nationalRailInterchange":null,"airportInterchange":null,"emiratesAirLineInterchange":null,"lat":51.52039028571429,"lon":-0.17001842857142857},{"id":"940GZZLUERC","name":"Edgware Road","fareZones":"1","hubCode":null,"wifi":true,"blueBadgeCarParking":false,"blueBadgeCarParkSpaces":null,"taxiRanksOutsideStation":false,"mainBusInterchange":null,"pierInterchange":null,"nationalRailInterchange":null,"airportInterchange":null,"emiratesAirLineInterchange":null,"lat":51.52001122222222,"lon":-0.16737455555555555},{"id":"940GZZLUESQ","name":"Euston Square","fareZones":"1","hubCode":null,"wifi":true,"blueBadgeCarParking":false,"blueBadgeCarParkSpaces":null,"taxiRanksOutsideStation":false,"mainBusInterchange":null,"pierInterchange":null,"nationalRailInterchange":null,"airportInterchange":null,"emiratesAirLineInterchange":null,"lat":51.52566842857142,"lon":-0.13555471428571428},{"id":"940GZZLUFBY","name":"Fulham Broadway","fareZones":"2","hubCode":null,"wifi":true,"blueBadgeCarParking":false,"blueBadgeCarParkSpaces":null,"taxiRanksOutsideStation":false,"mainBusInterchange":null,"pierInterchange":null,"nationalRailInterchange":null,"airportInterchange":null,"emiratesAirLineInterchange":null,"lat":51.48021166666667,"lon":-0.19517416666666668},